added_dt,last_update,link,floor,heating,advertiser_type,location,latitude,longitude,approximate_coordinates,elevator,building_type,safeguards,district,rent,additional_fees,area,room_number,students_allowed,non_smoker_only,building_height,for_renovation,balcony,terrace,garden,parking_space,separate_kitchen,utility_room,basement,gated_community,security_monitoring,building_age,cable_tv,internet,dishwasher,air_conditioning
2024-12-01,2024-12-18,https://www.otodom.pl/pl/oferta/2-oddzielne-pokoje-powisle-balkon-tramwaj-metro-ID4tI8c,2.0,district,agency,"al. Aleja 3 Maja, Solec, Śródmieście, Warszawa, mazowieckie",52.2344,21.0355,0,1,tenement,0,Srodmiescie,2700,600,38.0,2.0,0,0,8.0,0,1,0,0,0,1,0,0,0,0,93.0,0,1,0,0
2024-12-01,2024-12-01,https://www.otodom.pl/pl/oferta/2-pok-mieszkanie-wola-55m2-platinum-residens-ID4sLuf,10.0,district,agency,"ul. Grzybowska, Mirów, Wola, Warszawa, mazowieckie",52.23338,20.98782,0,1,apartment,0,Wola,6900,1300,55.0,2.0,0,0,22.0,0,1,0,0,1,0,0,0,0,1,16.0,1,1,1,0
2024-12-01,2024-12-19,https://www.otodom.pl/pl/oferta/bezposrednio-warszawa-mlociny-ID4tI5t,3.0,district,owner,"ul. Encyklopedyczna, Młociny, Bielany, Warszawa, mazowieckie",52.304743,20.926738,0,1,block_of_flats,1,Bielany,2900,770,56.0,2.0,0,1,5.0,0,1,0,0,1,0,0,0,0,0,16.0,1,1,1,0
2024-12-01,2024-12-19,https://www.otodom.pl/pl/oferta/metro-garaz-w-cenie-okazja-ID4tI3k,8.0,district,agency,"ul. Ludwika Kondratowicza, Bródno, Targówek, Warszawa, mazowieckie",52.29068,21.04814,0,1,other,1,Targowek,1950,736,35.0,1.0,0,0,8.0,0,0,0,0,0,0,0,0,1,0,24.0,1,1,0,0
2024-12-01,2024-12-21,https://www.otodom.pl/pl/oferta/mieszkanie-blisko-metra-mlynow-od-zaraz-ID4tI8r,1.0,district,owner,"ul. Żytnia, Młynów, Wola, Warszawa, mazowieckie",52.238905,20.968706,0,0,block_of_flats,0,Wola,2500,400,21.0,1.0,1,0,,0,0,0,0,0,0,0,0,0,0,,0,0,1,0
2024-12-01,2024-12-21,https://www.otodom.pl/pl/oferta/mieszkanie-na-wynajem-na-starych-bielanach-ID4tI1X,1.0,gas,agency,"ul. Gustawa Daniłowskiego, Stare Bielany, Bielany, Warszawa, mazowieckie",52.276306,20.945823,0,0,tenement,1,Bielany,5000,0,60.0,3.0,1,0,1.0,0,1,1,1,1,0,0,1,0,0,88.0,0,1,0,0
2024-12-01,2024-12-21,https://www.otodom.pl/pl/oferta/osiedle-amsterdam-33m2-2-pokoje-ID4tI42,2.0,,owner,"ul. Rembrandta, Targówek Mieszkaniowy, Targówek, Warszawa, mazowieckie",52.280378,21.049779,0,0,block_of_flats,0,Targowek,3000,650,33.0,2.0,0,0,5.0,0,1,0,0,1,0,0,0,1,0,,0,0,1,0
2024-12-01,2024-12-01,https://www.otodom.pl/pl/oferta/patria-3-bedrooms-2-bath-air-cond-terrace-ID4taT7,5.0,district,agency,"ul. Leona Kruczkowskiego, Solec, Śródmieście, Warszawa, mazowieckie",52.23404,21.03084,0,1,apartment,0,Srodmiescie,16000,2000,131.0,4.0,0,0,8.0,0,1,1,0,1,0,0,0,1,1,17.0,1,1,1,1
2024-12-01,2024-12-19,https://www.otodom.pl/pl/oferta/pierwszy-wynajem-nowoczesne-bez-prowizji-ID4tIrW,4.0,district,owner,"Holzera 6, Powsinek, Wilanów, Warszawa, mazowieckie",52.15613,21.11163,0,1,block_of_flats,1,Wilanow,3900,680,38.43,2.0,0,0,4.0,0,1,0,0,1,0,0,0,1,1,1.0,1,0,1,1
2024-12-01,2024-12-19,https://www.otodom.pl/pl/oferta/po-remoncie-komfortowe-42-m2-blisko-wum-i-okecia-ID4tIcS,1.0,district,owner,"ul. Stefana Baleya, Rakowiec, Ochota, Warszawa, mazowieckie",52.197027,20.980022,0,0,block_of_flats,1,Ochota,2900,500,41.6,2.0,0,1,4.0,0,0,0,0,0,0,0,1,0,0,,0,1,1,0
2024-12-01,2024-12-21,https://www.otodom.pl/pl/oferta/przestronne-mieszkanie-niedaleko-metra-trocka-ID4tIkg,2.0,district,owner,"Targówek Mieszkaniowy, Targówek, Warszawa, mazowieckie",52.27587,21.047,1,1,block_of_flats,0,Targowek,4450,0,65.0,3.0,0,1,5.0,0,1,0,0,0,0,0,0,0,0,9.0,1,1,1,1
2024-12-01,2024-12-01,https://www.otodom.pl/pl/oferta/przytulne-mieszkanie-parking-ID4tI58,1.0,district,owner,"ul. Owsiana, Kamionek, Praga-Południe, Warszawa, mazowieckie",52.248963,21.068475,0,1,block_of_flats,0,Praga_Poludnie,2700,650,41.0,2.0,0,1,5.0,0,1,0,0,1,0,0,0,1,1,7.0,1,1,1,1
2024-12-01,2024-12-19,https://www.otodom.pl/pl/oferta/rezerwacja-30-m-loggia-garaz-bezposrednio-ID4tIis,5.0,district,owner,"ul. Jana Pawła Woronicza, Wyględów, Mokotów, Warszawa, mazowieckie",52.191168,20.987134,0,1,apartment,1,Mokotow,2900,670,30.0,1.0,1,1,6.0,0,1,0,0,1,0,0,0,1,1,5.0,0,1,1,0
2024-12-02,2024-12-20,https://www.otodom.pl/pl/oferta/2-pokojemetro-wierzbnoumeblowanepo-remoncie-ID4tJgA,1.0,district,agency,"al. Aleja Niepodległości, Wierzbno, Mokotów, Warszawa, mazowieckie",52.19256,21.01614,0,0,block_of_flats,1,Mokotow,3100,600,37.5,2.0,0,0,4.0,0,0,0,0,1,0,1,1,1,1,70.0,0,1,1,0
2024-12-02,2024-12-19,https://www.otodom.pl/pl/oferta/3-pokojowe-mieszkanie-na-powislu-ID4tJjz,4.0,district,agency,"ul. Radna, Powiśle, Śródmieście, Warszawa, mazowieckie",52.24096,21.02414,0,0,tenement,1,Srodmiescie,6750,410,79.0,3.0,0,0,4.0,0,0,0,0,0,0,1,0,0,1,89.0,0,1,1,0
2024-12-02,2024-12-12,https://www.otodom.pl/pl/oferta/apartament-46-m2-metro-przy-rondo-daszynkiego-ID4tIPH,3.0,district,owner,"Ulrychów, Wola, Warszawa, mazowieckie",52.23338,20.95718,1,1,block_of_flats,1,Wola,4800,1000,46.0,2.0,0,1,7.0,0,1,0,0,0,0,0,0,1,1,13.0,0,0,1,0
2024-12-02,2024-12-02,https://www.otodom.pl/pl/oferta/apartament-w-budynku-z-sauna-silownia-recepcja-ID4tAzu,7.0,district,agency,"Okęcie, Włochy, Warszawa, mazowieckie",52.17991,20.94782,1,1,apartment,1,Wlochy,4000,350,36.0,2.0,0,0,7.0,0,1,0,0,1,0,0,0,1,1,3.0,1,1,1,0
2024-12-02,2024-12-02,https://www.otodom.pl/pl/oferta/bielany-3-pokoje-blisko-metra-wynajem-od-zaraz-ID4sNdw,1.0,district,agency,"ul. Starej Baśni, Stare Bielany, Bielany, Warszawa, mazowieckie",52.27405,20.94309,0,0,block_of_flats,0,Bielany,3800,760,56.0,3.0,0,0,4.0,0,0,0,0,0,0,0,0,0,1,,0,0,0,0
2024-12-02,2024-12-02,https://www.otodom.pl/pl/oferta/funkcjonalne-3-pokojowe-mieszkanie-ID4sRsS,1.0,district,agency,"Służew, Mokotów, Warszawa, mazowieckie",52.174163,21.010892,1,1,block_of_flats,0,Mokotow,3000,700,46.0,3.0,0,0,10.0,0,0,0,0,0,1,0,0,0,0,,0,0,0,0
2024-12-02,2024-12-20,https://www.otodom.pl/pl/oferta/kawalerka-z-garazem-ID4tJHP,2.0,district,agency,"ul. Obrońców Tobruku, Fort Bema, Bemowo, Warszawa, mazowieckie",52.258246,20.932134,0,1,other,0,Bemowo,2800,0,30.0,1.0,0,0,4.0,0,1,0,0,1,0,0,0,0,0,21.0,0,0,0,0
2024-12-02,2024-12-02,https://www.otodom.pl/pl/oferta/mieszkanie-przy-metrze-slodowiec-ID4tJ0N,9.0,district,owner,"Słodowiec, Bielany, Warszawa, mazowieckie",52.274561,20.954678,1,1,block_of_flats,0,Bielany,2600,700,37.0,2.0,0,0,10.0,0,0,0,0,0,0,0,0,0,0,,0,0,0,0
2024-12-02,2024-12-02,https://www.otodom.pl/pl/oferta/misteczko-wilanow-bezposrednio-ID4tJnA,3.0,district,agency,"ul. Aleksandra Gieysztora 3, Błonia Wilanowskie, Wilanów, Warszawa, mazowieckie",52.160458,21.083189,0,1,apartment,1,Wilanow,4500,0,46.0,2.0,0,0,3.0,0,0,1,0,1,0,1,0,1,1,10.0,1,1,1,0
2024-12-02,2024-12-02,https://www.otodom.pl/pl/oferta/mokotow-sikorskiego-2pokoje-balkon-garaz-klima-ID4tCR2,2.0,district,agency,"Sadyba, Mokotów, Warszawa, mazowieckie",52.18748,21.0611,1,1,block_of_flats,1,Mokotow,3900,400,44.0,2.0,0,1,6.0,0,1,1,0,1,0,1,0,0,1,4.0,0,0,1,1
2024-12-02,2024-12-02,https://www.otodom.pl/pl/oferta/oryginalne-mieszkanie-2-pokojowe-na-mokotowie-ID4sKCe,1.0,,agency,"Wierzbno, Mokotów, Warszawa, mazowieckie",52.193873,21.00949,0,1,other,0,Mokotow,2900,700,36.0,2.0,0,0,10.0,0,0,0,0,0,0,0,1,0,0,45.0,0,0,0,0
2024-12-02,2024-12-18,https://www.otodom.pl/pl/oferta/przestronna-kawalerka-bemowo-wat-36m2-ID4tIKq,1.0,gas,agency,"ul. gen. Sylwestra Kaliskiego, Boernerowo, Bemowo, Warszawa, mazowieckie",52.262086,20.898001,0,0,other,0,Bemowo,2600,500,36.0,1.0,0,0,3.0,0,0,0,0,0,1,0,0,0,0,69.0,0,0,1,0
2024-12-02,2024-12-16,https://www.otodom.pl/pl/oferta/sloneczne-studio-w-doskonalej-lokalizacji-ID4tKF1,4.0,,agency,"al. Aleja Jana Pawła II, Nowolipki, Wola, Warszawa, mazowieckie",52.24991,20.98595,0,1,block_of_flats,0,Wola,3100,460,25.7,1.0,0,0,9.0,0,0,0,0,0,0,0,1,0,0,60.0,0,0,0,0
2024-12-02,2024-12-09,https://www.otodom.pl/pl/oferta/srodmiescie-50m2-garderoba-osobna-kuchnia-ID4tJ5k,4.0,district,agency,"ul. Nowolipie, Muranów, Śródmieście, Warszawa, mazowieckie",52.243378,20.992663,0,0,tenement,0,Srodmiescie,3100,900,50.0,2.0,1,0,4.0,0,0,0,0,0,1,0,0,0,0,,0,0,1,0
2024-12-02,2024-12-10,https://www.otodom.pl/pl/oferta/trzypokojowe-mieszkanie-na-mokotowie-z-garazem-ID4tJoK,1.0,district,agency,"ul. Bluszczańska, Czerniaków, Mokotów, Warszawa, mazowieckie",52.20884,21.06277,0,1,block_of_flats,0,Mokotow,3900,1061,60.47,3.0,0,0,4.0,0,0,0,1,1,0,0,0,1,1,23.0,0,0,1,0
2024-12-03,2024-12-17,https://www.otodom.pl/pl/oferta/2-pokojowe-mieszkanie-przy-ch-arkadia-ID4tKp4,10.0,,agency,"ul. Dzika, Muranów, Śródmieście, Warszawa, mazowieckie",52.25323,20.98401,0,0,other,0,Srodmiescie,3700,805,47.0,2.0,0,0,12.0,0,1,0,0,0,0,0,0,0,0,,0,0,1,0
2024-12-03,2024-12-03,https://www.otodom.pl/pl/oferta/3-pokoje-klimatyzacja-pierwszy-najemca-ID4tHlF,2.0,,agency,"ul. Urugwajska, Saska Kępa, Praga-Południe, Warszawa, mazowieckie",52.228417,21.065528,0,0,apartment,0,Praga_Poludnie,5700,1100,57.0,3.0,0,0,4.0,0,1,1,0,1,0,0,0,1,1,,1,1,1,1
2024-12-03,2024-12-03,https://www.otodom.pl/pl/oferta/46m2-mieszkanie-garaz-arkadia-burakowska-16-ID4nDDm,5.0,,agency,"ul. Burakowska, Powązki, Wola, Warszawa, mazowieckie",52.256679,20.978892,0,1,apartment,0,Wola,4300,1,46.5,2.0,0,0,6.0,0,0,0,0,1,0,0,0,1,1,9.0,1,1,0,0
2024-12-03,2024-12-03,https://www.otodom.pl/pl/oferta/ciche-kamienica-merto-marymont-ID4tdvf,2.0,,agency,"ul. Potocka, Marymont-Potok, Żoliborz, Warszawa, mazowieckie",52.278274,20.985892,0,0,tenement,0,Zoliborz,4200,0,100.0,3.0,0,0,3.0,0,1,0,0,0,0,0,0,0,0,95.0,0,1,0,0
2024-12-03,2024-12-03,https://www.otodom.pl/pl/oferta/do-wynajecia-3-pokojowe-mieszkanie-suwalska-40-ID4tHds,,,owner,"ul. Suwalska, Bródno, Targówek, Warszawa, mazowieckie",52.293349,21.041254,0,0,block_of_flats,0,Targowek,3700,0,48.0,3.0,0,0,,0,0,0,0,0,0,0,0,0,0,,0,0,1,0
2024-12-03,2024-12-03,https://www.otodom.pl/pl/oferta/do-wynajecia-trzypokojowe-mieszkanie-z-klimatyzacj-ID4tKSO,3.0,district,agency,"ul. Lubaszki, Stegny, Mokotów, Warszawa, mazowieckie",52.178331,21.042572,0,1,block_of_flats,1,Mokotow,5200,1200,62.0,3.0,0,1,6.0,0,1,0,0,1,0,0,0,0,1,6.0,1,1,0,1
2024-12-03,2024-12-03,https://www.otodom.pl/pl/oferta/mieszkanie-2-pokojowe-z-duzym-balkonem-ID4tBtg,,gas,owner,"ul. Żegańska, Międzylesie, Wawer, Warszawa, mazowieckie",52.206351,21.177356,0,1,other,1,Wawer,2600,950,56.6,2.0,0,0,,0,1,0,0,1,1,0,0,1,1,,0,0,0,0
2024-12-03,2024-12-17,https://www.otodom.pl/pl/oferta/nowoczesny-apartament-w-poblizu-arkadii-dla-pary-ID4tKO9,10.0,district,agency,"al. Aleja Jana Pawła II, Nowolipki, Wola, Warszawa, mazowieckie",52.24493,20.99078,0,0,apartment,0,Wola,9000,850,55.0,2.0,0,0,25.0,0,0,0,0,1,0,0,0,0,0,21.0,0,0,0,0
2024-12-03,2024-12-21,https://www.otodom.pl/pl/oferta/piekna-kawalerka-woronicza-46-idealna-dla-pan-ID4tAAK,3.0,district,owner,"ul. Jana Pawła Woronicza, Wierzbno, Mokotów, Warszawa, mazowieckie",52.189444,21.004397,0,1,block_of_flats,1,Mokotow,2350,388,26.0,1.0,1,0,5.0,0,1,0,0,0,0,0,0,0,1,,1,1,0,0
2024-12-03,2024-12-03,https://www.otodom.pl/pl/oferta/przytulne-32-m-z-osobna-kuchnia-ul-joliot-curie-ID4tDzf,2.0,district,agency,"ul. Fryderyka Joliot-Curie, Wierzbno, Mokotów, Warszawa, mazowieckie",52.192466,21.010388,0,0,tenement,0,Mokotow,2600,580,32.0,1.0,0,0,3.0,0,1,0,0,0,0,0,0,0,0,65.0,1,1,0,0
2024-12-04,2024-12-10,https://www.otodom.pl/pl/oferta/2-ogrody-metro-dwustronne-od-zaraz-ID4tLP5,1.0,,agency,"ul. gen. Tadeusza Pełczyńskiego, Górce, Bemowo, Warszawa, mazowieckie",52.24336,20.90607,0,1,apartment,0,Bemowo,4700,700,66.0,3.0,0,0,6.0,0,0,0,1,1,0,0,0,0,0,9.0,0,0,1,0
2024-12-04,2024-12-04,https://www.otodom.pl/pl/oferta/2-pokojowe-nowoczesne-mieszkanie-z-ogrodkiem-ID4tLzC,1.0,district,agency,"ul. Krzyżówki, Żerań, Białołęka, Warszawa, mazowieckie",52.308765,20.99258,0,1,apartment,1,Bialoleka,3000,570,36.0,2.0,1,0,4.0,0,1,1,1,1,0,0,0,1,1,7.0,1,1,0,0
2024-12-04,2024-12-04,https://www.otodom.pl/pl/oferta/85m2-3-pokoje-centrum-ID4q0cl,6.0,,agency,"ul. Łucka, Mirów, Wola, Warszawa, mazowieckie",52.232618,20.989453,0,0,other,0,Wola,7700,1,85.0,3.0,0,0,,0,1,0,0,1,0,0,0,0,0,,0,0,0,0
2024-12-04,2024-12-04,https://www.otodom.pl/pl/oferta/98m2-3-pokoje-2-lazienki-mokotow-ID31aKM,5.0,district,agency,"ul. Biały Kamień, Wierzbno, Mokotów, Warszawa, mazowieckie",52.19592,21.01403,0,1,apartment,0,Mokotow,11000,1,98.0,3.0,0,0,5.0,0,0,0,0,0,0,0,0,0,1,18.0,1,1,0,0
2024-12-04,2024-12-14,https://www.otodom.pl/pl/oferta/dwa-pokoje-z-aneksem-metro-szwedzka-2-minuty-ID4tLYi,1.0,district,owner,"ul. Szwedzka 22 C, Nowa Praga, Praga-Północ, Warszawa, mazowieckie",52.26492,21.04182,0,0,block_of_flats,1,Praga_Polnoc,3500,700,44.0,2.0,0,0,5.0,0,0,1,1,1,0,0,0,1,1,2.0,0,0,1,0
2024-12-04,2024-12-04,https://www.otodom.pl/pl/oferta/eleganckie-mieszkanie-kabaty-3-pokoje-82m2-ID4njUj,2.0,,owner,"ul. Melchiora Wańkowicza, Kabaty, Ursynów, Warszawa, mazowieckie",52.133405,21.066058,0,1,block_of_flats,1,Ursynow,4200,1550,82.0,3.0,0,1,4.0,0,1,0,0,1,0,0,0,0,1,,1,1,1,0
2024-12-04,2024-12-11,https://www.otodom.pl/pl/oferta/kamienica-metro-dobry-standard-ID4tL64,1.0,,agency,"ul. Pawła Suzina, Stary Żoliborz, Żoliborz, Warszawa, mazowieckie",52.26879,20.9802,0,0,other,0,Zoliborz,3300,700,41.06,2.0,0,0,3.0,0,0,0,0,0,1,0,0,0,0,93.0,0,0,0,0
2024-12-04,2024-12-04,https://www.otodom.pl/pl/oferta/kawalerka-widno-swietna-lokalizacja-ID4tL66,7.0,,agency,"al. Aleja ""Solidarności"", Mirów, Wola, Warszawa, mazowieckie",52.23836,20.98507,0,1,other,0,Wola,2500,600,27.15,1.0,0,0,10.0,0,0,0,0,0,0,0,0,0,0,57.0,0,0,0,0
2024-12-04,2024-12-14,https://www.otodom.pl/pl/oferta/klimatyczne-sliczne-mieszkanie-w-kamienicy-ID4tM9B,2.0,district,owner,"Stara Ochota, Ochota, Warszawa, mazowieckie",52.21739,20.97525,1,0,tenement,0,Ochota,3800,470,40.0,2.0,1,1,4.0,0,0,0,0,0,0,0,1,0,0,,0,0,1,0
2024-12-04,2024-12-16,https://www.otodom.pl/pl/oferta/mieszkanie-3-pokojowe-73-m2-metro-szwedzka-ID4tE5I,1.0,district,agency,"Nowa Praga, Praga-Północ, Warszawa, mazowieckie",52.262416,21.049673,1,0,apartment,0,Praga_Polnoc,5600,450,74.0,3.0,0,0,4.0,0,0,0,0,1,0,0,0,0,0,5.0,1,1,1,0
2024-12-04,2024-12-04,https://www.otodom.pl/pl/oferta/mieszkanie-z-panoramicznym-widokiem-na-warszawe-ID4tGjF,10.0,district,agency,"ul. Władysława Umińskiego, Gocław, Praga-Południe, Warszawa, mazowieckie",52.224791,21.101028,0,1,block_of_flats,0,Praga_Poludnie,3000,0,63.6,3.0,0,0,12.0,0,1,0,0,0,1,0,0,0,0,43.0,0,0,0,0
2024-12-04,2024-12-17,https://www.otodom.pl/pl/oferta/nowe-2-pokojowe-blisko-metra-stara-praga-ID4tL6K,5.0,district,agency,"ul. Targowa, Stara Praga, Praga-Północ, Warszawa, mazowieckie",52.249191,21.041902,0,1,tenement,0,Praga_Polnoc,4000,0,50.0,2.0,0,0,5.0,0,0,0,0,0,0,0,0,0,1,6.0,1,1,0,0
2024-12-04,2024-12-04,https://www.otodom.pl/pl/oferta/przytulne-3-pokoje-obok-lazienek-krolewskich-ID4tGwM,3.0,district,agency,"ul. Jurija Gagarina, Sielce, Mokotów, Warszawa, mazowieckie",52.207272,21.041788,0,0,tenement,0,Mokotow,4499,950,56.0,3.0,0,1,3.0,0,0,0,0,1,1,0,1,0,0,67.0,1,1,1,0
2024-12-04,2024-12-04,https://www.otodom.pl/pl/oferta/warszawa-nowoczesne-2-pokojowe-mieszkanie-balkon-ID4sG4H,2.0,district,agency,"ul. Ceramiczna 5G, Tarchomin, Białołęka, Warszawa, mazowieckie",52.32045,20.963109,0,1,block_of_flats,1,Bialoleka,2800,1430,43.0,2.0,1,1,6.0,0,1,0,0,1,1,0,0,1,1,,1,1,1,1
2024-12-04,2024-12-17,https://www.otodom.pl/pl/oferta/warszawa-ochota-kopinska-28m2-dwa-pokoje-ID4tLcL,3.0,district,agency,"ul. Kopińska, Stara Ochota, Ochota, Warszawa, mazowieckie",52.217343,20.975233,0,0,tenement,0,Ochota,2200,0,28.0,2.0,0,0,3.0,0,0,0,0,0,0,0,0,0,0,55.0,0,0,0,0
2024-12-04,2024-12-04,https://www.otodom.pl/pl/oferta/wolne-od-zaraz-2-pok-przy-promenadzie-ID4t8cN,1.0,district,agency,"ul. Ostrobramska, Gocławek, Praga-Południe, Warszawa, mazowieckie",52.234689,21.104659,0,1,block_of_flats,1,Praga_Poludnie,2700,850,50.0,2.0,0,1,8.0,0,1,0,0,0,1,0,0,0,0,45.0,0,0,1,0
2024-12-04,2024-12-04,https://www.otodom.pl/pl/oferta/wynajme-nowe-mieszkanie-warszawa-bialoleka-37-5m-ID4jHdd,1.0,gas,owner,"ul. Zakątna, Żerań, Białołęka, Warszawa, mazowieckie",52.310599,20.978607,0,1,block_of_flats,0,Bialoleka,2700,750,37.5,2.0,0,0,4.0,0,1,0,0,1,0,0,0,1,0,3.0,1,1,1,0
2024-12-05,2024-12-15,https://www.otodom.pl/pl/oferta/2-pokoje-warszawa-stegny-ul-kaukaska-ID4tN5j,1.0,district,owner,"ul. Kaukaska, Stegny, Mokotów, Warszawa, mazowieckie",52.180452,21.051045,0,0,block_of_flats,0,Mokotow,2400,900,42.0,2.0,0,0,10.0,0,0,0,0,0,1,0,0,0,0,,1,1,1,0
2024-12-05,2024-12-05,https://www.otodom.pl/pl/oferta/2-pokoje-wysoki-standard-ochota-ID4tMoA,5.0,,agency,"ul. Walentego Skorochód-Majewskiego, Rakowiec, Ochota, Warszawa, mazowieckie",52.20646,20.97401,0,0,other,0,Ochota,3500,900,47.0,2.0,0,0,5.0,0,1,0,0,0,1,0,0,0,0,,0,0,1,0
2024-12-05,2024-12-05,https://www.otodom.pl/pl/oferta/apartament-2-pokoje-ursynow-logia-61-m2-metro-ID4slww,4.0,district,agency,"Natolin, Ursynów, Warszawa, mazowieckie",52.14592,21.05622,1,1,block_of_flats,1,Ursynow,3000,1199,61.4,2.0,0,0,5.0,0,0,0,0,1,0,0,0,0,0,23.0,1,1,1,0
2024-12-05,2024-12-09,https://www.otodom.pl/pl/oferta/bartoszka-3-pokoje-67-m2-ID4tMC3,1.0,district,agency,"ul. Stanisława Pyjasa, Czerniaków, Mokotów, Warszawa, mazowieckie",52.195286,21.051824,0,0,block_of_flats,0,Mokotow,2900,800,67.0,3.0,0,0,4.0,0,1,0,0,1,1,0,0,1,0,30.0,0,0,0,0
2024-12-05,2024-12-15,https://www.otodom.pl/pl/oferta/bezposrednio-3pok-58m2-metro-natolin-umeblowane-ID4tN4F,7.0,district,owner,"ul. Na Uboczu, Natolin, Ursynów, Warszawa, mazowieckie",52.141716,21.049261,0,1,block_of_flats,0,Ursynow,3300,1300,58.0,3.0,1,0,10.0,0,1,0,0,1,1,0,1,0,0,41.0,0,1,1,0
2024-12-05,2024-12-05,https://www.otodom.pl/pl/oferta/eleganckie-3-pokoje-w-sercu-miasteczka-wilanow-ID4tuyA,1.0,district,agency,"Błonia Wilanowskie, Wilanów, Warszawa, mazowieckie",52.155877,21.082523,0,1,apartment,1,Wilanow,7500,1000,88.0,3.0,0,0,4.0,0,0,0,0,1,0,0,0,0,1,8.0,0,0,0,0
2024-12-05,2024-12-05,https://www.otodom.pl/pl/oferta/eleganckie-3pok-70m2-z-ogrodkiem-i-garazem-ID4gF4e,,,agency,"Groszówka, Wesoła, Warszawa, mazowieckie",52.233826,21.226836,1,0,other,0,Wesola,4000,0,70.0,3.0,0,0,,0,0,0,0,0,0,0,0,0,0,,0,0,0,0
2024-12-05,2024-12-05,https://www.otodom.pl/pl/oferta/goclaw-2pokoje-przy-promenadzie-garderoba-klima-ID4tMqg,6.0,district,agency,"Gocław, Praga-Południe, Warszawa, mazowieckie",52.23,21.08,1,1,apartment,1,Praga_Poludnie,4400,0,46.0,2.0,0,0,8.0,0,1,0,0,1,0,0,0,0,1,5.0,1,1,0,0
2024-12-05,2024-12-05,https://www.otodom.pl/pl/oferta/kawalerka-w-samym-centrum-warszawy-ID4tjtS,6.0,,agency,"Śródmieście Południowe, Śródmieście, Warszawa, mazowieckie",52.23214,21.0267,0,1,other,0,Srodmiescie,2200,433,34.0,1.0,0,0,8.0,0,0,0,0,0,0,0,0,0,0,55.0,0,0,0,0
2024-12-05,2024-12-17,https://www.otodom.pl/pl/oferta/kompaktowa-kawalerka-przy-metrze-pole-mokotowskie-ID4tNdf,1.0,,agency,"ul. Stefana Batorego, Filtry, Ochota, Warszawa, mazowieckie",52.210248,21.00379,0,0,other,0,Ochota,2400,400,20.0,1.0,0,0,1.0,0,0,0,0,0,0,0,0,0,1,3.0,0,0,0,0
2024-12-05,2024-12-05,https://www.otodom.pl/pl/oferta/mieszkanie-3-pokojowe-82m2-chomiczowka-ID4tmbY,3.0,district,owner,"ul. Wojciecha Bogusławskiego, Chomiczówka, Bielany, Warszawa, mazowieckie",52.27883,20.918824,0,1,block_of_flats,1,Bielany,4500,1000,82.0,3.0,0,0,8.0,0,0,1,0,1,1,0,0,1,1,22.0,0,0,1,1
2024-12-05,2024-12-05,https://www.otodom.pl/pl/oferta/mieszkanie-49-66-m-warszawa-ID4tN3k,1.0,district,agency,"ul. Bokserska, Służew, Mokotów, Warszawa, mazowieckie",52.170938,20.99938,0,0,block_of_flats,0,Mokotow,3500,680,49.66,3.0,1,1,2.0,0,0,0,0,0,1,0,0,0,0,71.0,1,1,0,0
2024-12-05,2024-12-05,https://www.otodom.pl/pl/oferta/nowy-apartament-ul-kasprzaka-komorka-i-parking-ID4tMyI,,district,agency,"ul. Marcina Kasprzaka, Odolany, Wola, Warszawa, mazowieckie",52.228285,20.955318,0,1,apartment,1,Wola,4500,1000,46.0,2.0,1,0,,0,1,1,0,1,0,1,1,0,1,3.0,1,1,1,1
2024-12-05,2024-12-05,https://www.otodom.pl/pl/oferta/pierwszy-najemca-nowiutkie-m4-przy-metrze-kabaty-ID4tNhj,3.0,district,agency,"ul. Jerzego Iwanowa-Szajnowicza 8, Kabaty, Ursynów, Warszawa, mazowieckie",52.129932,21.069793,0,1,apartment,1,Ursynow,5900,1150,76.0,3.0,0,1,5.0,0,1,0,0,1,0,0,1,0,1,2.0,1,1,1,0
2024-12-05,2024-12-08,https://www.otodom.pl/pl/oferta/rezerwacja-nowe-mieszkanie-bl-westfield-mokotow-ID4tN7Y,7.0,district,agency,"ul. Komputerowa, Służewiec, Mokotów, Warszawa, mazowieckie",52.174193,20.990123,0,1,block_of_flats,0,Mokotow,4700,0,41.0,2.0,0,0,7.0,0,1,0,0,1,0,0,0,1,0,,0,0,1,0
2024-12-05,2024-12-20,https://www.otodom.pl/pl/oferta/wlochy-4-pokoje-92m2-6-pietro-nowe-zwierzeta-ID4tMFU,6.0,district,agency,"Wschodu Słońca, Raków, Włochy, Warszawa, mazowieckie",52.200536,20.941984,0,1,block_of_flats,0,Wlochy,6300,1014,92.2,4.0,1,0,6.0,0,1,0,1,1,0,0,0,0,1,1.0,0,1,1,0
2024-12-06,2024-12-06,https://www.otodom.pl/pl/oferta/2-pok-w-sercu-starego-mokotowa-w-kamienicy-1938-r-ID4tNWH,1.0,,agency,"ul. Różana, Stary Mokotów, Mokotów, Warszawa, mazowieckie",52.20368,21.02265,0,0,other,0,Mokotow,2900,1200,68.0,2.0,0,0,3.0,0,1,0,0,0,0,0,1,0,0,87.0,0,0,0,0
2024-12-06,2024-12-06,https://www.otodom.pl/pl/oferta/2-pokoje-41-m2-metro-rondo-daszynskiego-ID4tHRB,2.0,district,owner,"Czyste, Wola, Warszawa, mazowieckie",52.231759,20.973551,1,1,apartment,0,Wola,3500,500,41.0,2.0,0,1,,0,1,0,0,0,0,0,0,1,1,9.0,0,0,0,0
2024-12-06,2024-12-08,https://www.otodom.pl/pl/oferta/2-pokoje-przy-placu-zbawicielaklimaremont-ID4tOca,1.0,district,agency,"al. Aleja Armii Ludowej, Śródmieście Południowe, Śródmieście, Warszawa, mazowieckie",52.21867,21.02134,0,1,tenement,1,Srodmiescie,3900,750,52.0,2.0,0,0,6.0,0,0,0,0,0,0,0,0,0,0,69.0,0,1,1,1
2024-12-06,2024-12-06,https://www.otodom.pl/pl/oferta/2-pokojowe-mieszkanie-na-grochowie-ID4tNV3,10.0,,agency,"ul. Majdańska, Grochów, Praga-Południe, Warszawa, mazowieckie",52.24129,21.08965,0,0,other,0,Praga_Poludnie,2700,950,50.0,2.0,0,0,15.0,0,1,0,0,0,0,0,1,0,0,,0,0,1,0
2024-12-06,2024-12-21,https://www.otodom.pl/pl/oferta/4-pokoje-po-remoncie-w-apartamentowcu-ID4tOeO,1.0,district,owner,"al. Aleja Jana Chrystiana Szucha, Śródmieście Południowe, Śródmieście, Warszawa, mazowieckie",52.217019,21.022112,0,1,apartment,0,Srodmiescie,12500,1500,110.0,4.0,0,1,6.0,0,1,0,0,1,0,0,0,0,1,23.0,1,1,1,1
2024-12-06,2024-12-06,https://www.otodom.pl/pl/oferta/83m2-3-pokoje-miasteczko-wilanow-ID30y8I,1.0,,agency,"Księdza Prymasa Augusta Hlonda, Powsinek, Wilanów, Warszawa, mazowieckie",52.15202,21.10499,0,0,apartment,0,Wilanow,5700,1,83.0,3.0,0,0,3.0,0,0,0,0,0,0,0,0,0,0,18.0,0,0,0,0
2024-12-06,2024-12-07,https://www.otodom.pl/pl/oferta/centrum-wysoki-stand-klimatyzacja-metro-1-i-2-ID4tOj9,6.0,district,agency,"ul. Złota, Śródmieście Północne, Śródmieście, Warszawa, mazowieckie",52.23316,21.01261,0,1,block_of_flats,0,Srodmiescie,4200,750,35.0,2.0,0,0,9.0,0,0,0,0,0,0,0,0,0,0,61.0,0,0,1,0
2024-12-06,2024-12-06,https://www.otodom.pl/pl/oferta/dwa-pokoje-ochota-wlochy-ID4taVB,8.0,district,owner,"ul. Strubiczów, Okęcie, Włochy, Warszawa, mazowieckie",52.194335,20.963782,0,1,block_of_flats,1,Wlochy,2500,520,36.0,2.0,1,1,10.0,0,0,0,0,0,1,0,0,0,1,51.0,1,1,1,0
2024-12-06,2024-12-11,https://www.otodom.pl/pl/oferta/kabaty-60-m-2-pokoje-garaz-taras-ID4tNCl,1.0,district,agency,"ul. Stryjeńskich, Natolin, Ursynów, Warszawa, mazowieckie",52.136539,21.0503,0,1,apartment,1,Ursynow,3600,0,60.0,2.0,1,0,5.0,0,0,1,0,1,0,0,0,1,1,,1,1,0,0
2024-12-06,2024-12-06,https://www.otodom.pl/pl/oferta/kamienica-ciche-balkon-parking-ID4tl2P,1.0,,agency,"ul. Wawelska, Stara Ochota, Ochota, Warszawa, mazowieckie",52.216006,20.98554,0,0,tenement,0,Ochota,3500,1000,68.0,2.0,0,0,3.0,0,1,0,0,1,0,0,0,0,0,95.0,1,0,0,0
2024-12-06,2024-12-16,https://www.otodom.pl/pl/oferta/kawalerka-w-dobrej-lokalizacji-po-remoncie-ID4tOhW,1.0,district,owner,"ul. Chełmska, Sielce, Mokotów, Warszawa, mazowieckie",52.201231,21.03483,0,0,other,0,Mokotow,3300,0,28.0,1.0,1,0,3.0,0,1,0,0,0,1,0,0,0,0,,1,0,0,0
2024-12-06,2024-12-13,https://www.otodom.pl/pl/oferta/kawalerka-winda-williama-lindleya-ID4tNGQ,4.0,district,agency,"ul. Williama Heerleina Lindleya, Filtry, Ochota, Warszawa, mazowieckie",52.224785,20.996917,0,1,tenement,0,Ochota,3000,300,30.0,1.0,0,0,5.0,0,0,0,0,0,0,0,0,0,0,87.0,1,1,0,1
2024-12-06,2024-12-06,https://www.otodom.pl/pl/oferta/lux-studio-aneks-sypialniany-39m2-metro-dw-wilensk-ID4sndx,3.0,district,agency,"Plac Konesera, Szmulowizna, Praga-Północ, Warszawa, mazowieckie",52.255669,21.04344,0,1,apartment,0,Praga_Polnoc,3299,650,39.0,1.0,0,0,6.0,0,1,0,0,1,1,0,0,0,0,6.0,1,1,1,0
2024-12-06,2024-12-06,https://www.otodom.pl/pl/oferta/mieszkanie-1pok-28m2-mokotow-ul-opoczynska-metro-ID4tkbo,1.0,district,agency,"Wierzbno, Mokotów, Warszawa, mazowieckie",52.19832,21.01715,1,0,tenement,0,Mokotow,2800,634,28.46,1.0,0,0,3.0,0,0,0,0,0,1,0,0,0,0,,0,0,0,0
2024-12-06,2024-12-06,https://www.otodom.pl/pl/oferta/mieszkanie-z-ogrodkiem-na-saskiej-kepie-ID4tNCD,1.0,,agency,"ul. Paryska, Saska Kępa, Praga-Południe, Warszawa, mazowieckie",52.22792,21.05839,0,0,other,0,Praga_Poludnie,3600,800,50.0,2.0,0,0,3.0,0,1,1,1,0,0,0,1,0,0,,0,0,1,0
2024-12-06,2024-12-21,https://www.otodom.pl/pl/oferta/niski-czynsz-balkon-metro-brodno-las-ID4tNxS,2.0,district,agency,"Vincenza Belliniego, Kobiałka, Białołęka, Warszawa, mazowieckie",52.3446,21.04846,0,1,block_of_flats,0,Bialoleka,2499,582,37.0,2.0,0,0,2.0,0,1,0,0,0,0,0,0,1,0,8.0,1,1,1,0
2024-12-06,2024-12-06,https://www.otodom.pl/pl/oferta/nowe-2-pokoje-wysoki-standard-bezposrednio-ID4mp8r,2.0,district,owner,"ul. Szeligowska, Chrzanów, Bemowo, Warszawa, mazowieckie",52.227951,20.880627,0,1,block_of_flats,1,Bemowo,3000,600,40.0,2.0,0,1,5.0,0,1,0,0,1,0,0,0,1,1,2.0,1,1,1,0
2024-12-06,2024-12-06,https://www.otodom.pl/pl/oferta/po-remoncie-2-pokoje-na-olszynce-g-ID4tO63,1.0,district,agency,"ul. Makowska, Śródmieście Południowe, Śródmieście, Warszawa, mazowieckie",52.222895,21.019821,0,1,block_of_flats,0,Srodmiescie,2500,500,38.8,2.0,0,0,8.0,0,0,0,0,1,0,0,1,0,0,55.0,0,0,0,0
2024-12-06,2024-12-06,https://www.otodom.pl/pl/oferta/przestronnosc-styl-i-komfort-z-oszklona-loggia-ID4tGgb,2.0,district,agency,"Kabaty, Ursynów, Warszawa, mazowieckie",52.135427,21.072104,1,1,block_of_flats,1,Ursynow,5500,1200,83.0,3.0,0,0,5.0,0,1,0,0,1,1,0,1,0,1,25.0,1,1,1,0
2024-12-06,2024-12-06,https://www.otodom.pl/pl/oferta/przestronny-apartament-na-srodmiesciu-ID4tCCD,4.0,,agency,"al. Aleja ""Solidarności"", Śródmieście Północne, Śródmieście, Warszawa, mazowieckie",52.242654,20.996211,0,0,apartment,0,Srodmiescie,12500,1600,93.0,4.0,0,0,,0,1,0,0,1,0,0,1,0,0,,0,1,0,0
2024-12-06,2024-12-06,https://www.otodom.pl/pl/oferta/stylowy-apartament-duzy-balkon-garaz-ID4sOku,4.0,district,agency,"ul. Piaskowa, Powązki, Wola, Warszawa, mazowieckie",52.25472,20.97643,0,1,apartment,1,Wola,7200,1200,82.37,3.0,0,0,6.0,0,1,0,0,1,0,0,0,1,1,,0,0,1,0
2024-12-06,2024-12-06,https://www.otodom.pl/pl/oferta/zoliborz-kawalerka-z-ogrodkiem-i-garazem-ID4tFzS,,district,agency,"Ficowskiego, Sady Żoliborskie, Żoliborz, Warszawa, mazowieckie",52.2562,20.9621,0,0,apartment,0,Zoliborz,2900,0,30.0,1.0,0,0,,0,0,1,1,1,0,0,1,1,0,,0,1,0,0
2024-12-07,2024-12-20,https://www.otodom.pl/pl/oferta/2-pokoje-balkon-garaz-gratis-metro-szwecka-ID4tOmC,1.0,district,agency,"ul. Lęborska, Nowa Praga, Praga-Północ, Warszawa, mazowieckie",52.26151,21.0339,0,1,apartment,1,Praga_Polnoc,2500,700,33.0,2.0,1,1,16.0,0,1,0,0,1,0,0,0,1,1,18.0,1,1,1,0
2024-12-07,2024-12-17,https://www.otodom.pl/pl/oferta/atrakcyjne-mieszkanie-na-mokotowie-ID4tOnn,1.0,district,owner,"ul. Zwierzyniecka, Czerniaków, Mokotów, Warszawa, mazowieckie",52.209082,21.050385,0,0,block_of_flats,1,Mokotow,2500,800,38.0,2.0,0,0,4.0,0,1,0,0,1,0,0,1,0,0,61.0,0,0,0,0
2024-12-07,2024-12-07,https://www.otodom.pl/pl/oferta/bez-prowizji-2-pok-mieszkanie-na-zlotej-44-ID4tlmx,,,agency,"ul. Złota, Śródmieście Północne, Śródmieście, Warszawa, mazowieckie",52.231096,21.003458,0,0,other,0,Srodmiescie,20000,4000,100.0,2.0,0,0,,0,0,0,0,0,0,0,0,0,0,,0,0,0,0
2024-12-07,2024-12-07,https://www.otodom.pl/pl/oferta/krakowskie-przedmiescie-ID4sQKP,4.0,,agency,"ul. Krakowskie Przedmieście, Śródmieście Północne, Śródmieście, Warszawa, mazowieckie",52.2389,21.017578,0,0,tenement,0,Srodmiescie,5200,0,110.0,3.0,0,0,4.0,0,0,0,0,0,0,0,0,0,0,,0,0,0,0
2024-12-07,2024-12-07,https://www.otodom.pl/pl/oferta/luksusowe-mieszkanie-super-lokalizacja-ID4tOuJ,3.0,district,agency,"ul. Giełdowa, Czyste, Wola, Warszawa, mazowieckie",52.23116,20.97431,0,1,apartment,0,Wola,4800,1000,46.0,2.0,0,0,7.0,0,1,0,0,0,0,0,0,1,1,10.0,0,0,1,0
2024-12-07,2024-12-17,https://www.otodom.pl/pl/oferta/mam-do-wynajecia-mieszkanie-3-pok-ul-gosciniec-ID4tOEX,2.0,,owner,"Stara Miłosna, Wesoła, Warszawa, mazowieckie",52.21917,21.2352,1,0,block_of_flats,1,Wesola,3800,500,67.2,3.0,1,1,3.0,0,1,0,0,1,1,0,1,1,0,39.0,1,1,1,0
2024-12-07,2024-12-07,https://www.otodom.pl/pl/oferta/mieszaknie-3-pokoje-miejsce-w-garazu-komorka-ID4hbyf,4.0,district,owner,"ul. Konstruktorska, Służewiec, Mokotów, Warszawa, mazowieckie",52.185519,20.995157,0,1,apartment,0,Mokotow,5500,1379,60.0,3.0,0,0,8.0,0,1,0,0,1,0,1,1,1,1,7.0,1,1,1,1
2024-12-07,2024-12-07,https://www.otodom.pl/pl/oferta/mieszkanie-2-pokoje-100m-metro-sluzew-ID4tOEw,7.0,district,owner,"ul. Wałbrzyska, Służew, Mokotów, Warszawa, mazowieckie",52.172651,21.024786,0,1,block_of_flats,0,Mokotow,2800,1000,46.0,2.0,1,1,11.0,0,1,0,0,1,1,0,1,0,0,,0,0,0,0
2024-12-07,2024-12-07,https://www.otodom.pl/pl/oferta/mieszkanie-2-pokoje-250m-metro-sluzew-parking-ID4nAoS,4.0,district,owner,"ul. Wolfganga Amadeusza Mozarta, Służew, Mokotów, Warszawa, mazowieckie",52.172005,21.03057,0,1,block_of_flats,0,Mokotow,3000,1000,46.0,2.0,0,0,11.0,0,1,0,0,1,1,0,0,0,1,,0,1,1,0
2024-12-07,2024-12-10,https://www.otodom.pl/pl/oferta/mieszkanie-na-wynajem-na-mokotowie-ID4tOzj,9.0,district,agency,"ul. Jana Bytnara ""Rudego"", Wierzbno, Mokotów, Warszawa, mazowieckie",52.19227,21.00877,0,1,block_of_flats,0,Mokotow,2250,700,36.0,2.0,0,0,10.0,1,0,0,0,0,1,0,1,0,0,61.0,0,1,0,0
2024-12-07,2024-12-07,https://www.otodom.pl/pl/oferta/mieszkanie-premium-dostepne-od-zaraz-ID4tlNt,5.0,,agency,"ul. Bokserska, Wyczółki, Ursynów, Warszawa, mazowieckie",52.17114,20.98948,0,0,other,0,Ursynow,9500,1000,85.7,3.0,0,0,7.0,0,1,1,0,1,0,0,0,0,0,3.0,0,0,1,0
2024-12-07,2024-12-07,https://www.otodom.pl/pl/oferta/mieszkanie-z-wid-na-zes-palac-wilanow-od-1-12-ID4i0DM,4.0,district,owner,"ul. Krzysztofa Kieślowskiego, Błonia Wilanowskie, Wilanów, Warszawa, mazowieckie",52.165685,21.079738,0,1,apartment,1,Wilanow,5500,950,57.0,2.0,0,0,4.0,0,1,0,0,1,0,0,0,1,1,9.0,0,0,1,0
2024-12-07,2024-12-18,https://www.otodom.pl/pl/oferta/piekne-mieszkanie-na-warszawskim-powislu-ID4p7dG,6.0,,owner,"ul. Okrąg, Solec, Śródmieście, Warszawa, mazowieckie",52.230255,21.036335,0,1,block_of_flats,1,Srodmiescie,3250,750,38.0,2.0,0,0,8.0,0,1,0,0,0,1,0,1,0,1,,0,0,0,0
2024-12-07,2024-12-07,https://www.otodom.pl/pl/oferta/stegny-3-pokoje-widna-kuchnia-wynajme-ID4tHfK,1.0,district,agency,"ul. Czarnomorska, Stegny, Mokotów, Warszawa, mazowieckie",52.178851,21.046883,0,1,block_of_flats,0,Mokotow,2850,750,56.0,3.0,0,0,12.0,0,1,0,0,0,0,0,0,0,1,45.0,0,0,0,0
2024-12-07,2024-12-16,https://www.otodom.pl/pl/oferta/studio-na-brodnie-ul-rembielinska-19-ID4tOAT,5.0,district,agency,"Bródno, Targówek, Warszawa, mazowieckie",52.292057,21.026805,0,1,block_of_flats,0,Targowek,2700,350,26.0,1.0,0,0,10.0,0,0,0,0,1,0,0,0,0,0,52.0,0,0,0,0
2024-12-07,2024-12-20,https://www.otodom.pl/pl/oferta/wilanow-3-pokoje-50m2-nie-zamieszkale-po-remoncie-ID4tOse,4.0,district,owner,"ul. Gubinowska, Wilanów Wysoki, Wilanów, Warszawa, mazowieckie",52.170161,21.069315,0,1,block_of_flats,1,Wilanow,4200,599,50.0,3.0,1,0,8.0,0,1,0,0,0,0,0,1,1,1,57.0,1,1,1,0
2024-12-08,2024-12-08,https://www.otodom.pl/pl/oferta/136m2-wysoki-standard-ul-tamka-ID4r0ru,3.0,,agency,"ul. Tamka, Powiśle, Śródmieście, Warszawa, mazowieckie",52.23689,21.025952,0,0,other,0,Srodmiescie,21000,1,136.69,4.0,0,0,,0,0,0,0,1,0,0,0,0,0,,0,0,0,0
2024-12-08,2024-12-08,https://www.otodom.pl/pl/oferta/2-pokoje-w-nowym-bloku-niska-cena-bezposrednio-ID4tBs9,4.0,district,owner,"ul. Wólczyńska, Chomiczówka, Bielany, Warszawa, mazowieckie",52.28094,20.919428,0,1,block_of_flats,1,Bielany,2600,600,41.0,2.0,1,1,14.0,0,0,0,0,0,0,0,0,1,1,8.0,0,0,0,0
2024-12-08,2024-12-08,https://www.otodom.pl/pl/oferta/2-pokojowe-29m-ul-piekna-kamienica-ID4tOIM,6.0,,agency,"ul. Piękna, Śródmieście Południowe, Śródmieście, Warszawa, mazowieckie",52.223503,21.018525,0,1,tenement,0,Srodmiescie,3800,0,29.0,2.0,0,0,9.0,0,0,0,0,0,0,0,0,1,0,63.0,0,0,0,0
2024-12-08,2024-12-20,https://www.otodom.pl/pl/oferta/3-pokoje-lazurowa-bemowo-57-m2-mieszkanie-z-2024-ID4tOI2,4.0,district,owner,"ul.Lazurowa, Chrzanów, Bemowo, Warszawa, mazowieckie",52.225863,20.895888,0,1,block_of_flats,1,Bemowo,3500,850,57.0,3.0,0,0,6.0,0,1,0,0,1,0,0,0,0,1,1.0,0,1,1,0
2024-12-08,2024-12-19,https://www.otodom.pl/pl/oferta/3-pokoje-przy-ul-pieknej-centrum-warszawy-ID4tOIF,3.0,,agency,"ul. Piękna, Śródmieście Południowe, Śródmieście, Warszawa, mazowieckie",52.223503,21.018525,0,1,block_of_flats,0,Srodmiescie,5300,1100,61.5,3.0,0,0,6.0,0,0,0,0,0,0,0,0,0,0,65.0,0,0,0,0
2024-12-08,2024-12-08,https://www.otodom.pl/pl/oferta/61m2-2-pokoje-centrum-ID4npbx,5.0,,agency,"ul. Grzybowska, Śródmieście Północne, Śródmieście, Warszawa, mazowieckie",52.237585,21.001654,0,0,apartment,0,Srodmiescie,5400,1,61.0,2.0,0,0,11.0,0,0,0,0,0,0,0,0,0,1,15.0,0,0,0,0
2024-12-08,2024-12-08,https://www.otodom.pl/pl/oferta/72m2-wysoki-standard-ul-grzybowska-ID4i6RM,2.0,district,agency,"ul. Grzybowska, Śródmieście Południowe, Śródmieście, Warszawa, mazowieckie",52.23214,21.0267,0,0,apartment,0,Srodmiescie,11000,1,72.3,2.0,0,0,16.0,0,0,0,0,0,0,0,0,0,1,16.0,0,0,0,0
2024-12-08,2024-12-08,https://www.otodom.pl/pl/oferta/77m2-wysoki-standard-ul-goszczynskiego-ID4r0rt,2.0,,agency,"ul. Seweryna Goszczyńskiego, Wierzbno, Mokotów, Warszawa, mazowieckie",52.19437,21.015267,0,0,other,0,Mokotow,9500,1,77.76,3.0,0,0,4.0,0,0,0,0,0,0,0,0,0,0,3.0,0,0,0,0
2024-12-08,2024-12-08,https://www.otodom.pl/pl/oferta/80m2-3-pokojowe-al-wilanowska-ID4r0rw,1.0,,agency,"al. Aleja Wilanowska, Stegny, Mokotów, Warszawa, mazowieckie",52.171778,21.051954,0,0,other,0,Mokotow,6205,1,80.0,3.0,0,0,,0,0,0,0,0,0,0,0,0,0,,0,0,0,0
2024-12-08,2024-12-08,https://www.otodom.pl/pl/oferta/90m2-3-pokoje-2-lazienki-nowe-ID3lXRu,2.0,,agency,"ul. Adama Naruszewicza, Wierzbno, Mokotów, Warszawa, mazowieckie",52.19592,21.01403,0,1,apartment,0,Mokotow,9500,1,90.0,3.0,0,0,6.0,0,0,0,0,1,0,0,0,0,1,10.0,0,0,0,0
2024-12-08,2024-12-10,https://www.otodom.pl/pl/oferta/apartament-4-pokoje-w-miasteczku-wilanow-ID4tOHj,3.0,,agency,"al. Aleja Rzeczypospolitej, Błonia Wilanowskie, Wilanów, Warszawa, mazowieckie",52.161572,21.071291,0,0,apartment,0,Wilanow,6200,1200,84.0,4.0,0,0,4.0,0,0,0,0,1,0,0,0,1,1,8.0,0,0,0,1
2024-12-08,2024-12-08,https://www.otodom.pl/pl/oferta/apartament-na-wynajem-na-wilanowie-350-m-z-ogro-ID4sSI0,1.0,district,agency,"Ksawerów, Mokotów, Warszawa, mazowieckie",52.178627,21.026681,1,0,apartment,1,Mokotow,20000,6000,350.0,7.0,0,0,4.0,0,0,1,1,1,0,0,1,0,1,17.0,0,0,0,0
2024-12-08,2024-12-08,https://www.otodom.pl/pl/oferta/bez-prowizji-mieszkanie-na-mokotowie-ID4tP4l,3.0,,agency,"ul. Suwak, Służewiec, Mokotów, Warszawa, mazowieckie",52.183169,20.988674,0,0,other,1,Mokotow,4600,620,41.0,2.0,0,0,5.0,0,0,0,0,1,0,0,0,0,0,,0,0,1,0
2024-12-08,2024-12-08,https://www.otodom.pl/pl/oferta/bez-prowizji-wynajem-mieszkania-na-sadybie-ID4tP2E,3.0,,agency,"Sadyba, Mokotów, Warszawa, mazowieckie",52.18748,21.0611,1,0,block_of_flats,0,Mokotow,5000,850,53.0,3.0,0,0,,0,0,0,0,1,0,0,0,0,0,,0,0,1,0
2024-12-08,2024-12-20,https://www.otodom.pl/pl/oferta/bezposrednio-ciche-i-wyjatkowe-mieszkanie-68m2-ID4tOI0,1.0,district,owner,"ul. Wawelska, Stara Ochota, Ochota, Warszawa, mazowieckie",52.215774,20.987171,0,0,tenement,1,Ochota,3300,900,68.0,2.0,1,0,,0,1,0,0,1,1,0,1,1,1,,1,1,0,0
2024-12-08,2024-12-13,https://www.otodom.pl/pl/oferta/bezposrednio-dwustronne-2pok-z-oddzielna-kuchnia-ID4tOMv,4.0,,owner,"ul. Stanisława Mikołajczyka, Gocław, Praga-Południe, Warszawa, mazowieckie",52.229002,21.101125,0,0,block_of_flats,0,Praga_Poludnie,2700,875,48.0,2.0,0,1,4.0,0,1,0,0,0,1,0,0,1,1,,0,0,0,0
2024-12-08,2024-12-16,https://www.otodom.pl/pl/oferta/bialoleka-44m2-2-pokoje-balkon-ID4tOMs,5.0,,agency,"ul. Pasłęcka, Nowodwory, Białołęka, Warszawa, mazowieckie",52.33326,20.94816,0,1,other,0,Bialoleka,2000,900,44.0,2.0,0,0,5.0,0,1,0,0,0,0,0,0,0,0,,0,0,0,0
2024-12-08,2024-12-18,https://www.otodom.pl/pl/oferta/bielany-ul-maszewska-kawalerka-po-remoncie-ID4tP3v,3.0,boiler room,owner,"ul. Maszewska, Chomiczówka, Bielany, Warszawa, mazowieckie",52.274575,20.913229,0,1,block_of_flats,0,Bielany,2600,575,33.0,1.0,0,1,10.0,0,1,0,0,0,1,0,0,1,0,25.0,0,0,1,0
2024-12-08,2024-12-08,https://www.otodom.pl/pl/oferta/elegancki-dwupokojowy-apartament-w-cosmopolitan-ID4jnpK,10.0,,agency,"ul. Twarda, Śródmieście Północne, Śródmieście, Warszawa, mazowieckie",52.23519,21.00181,0,1,apartment,1,Srodmiescie,15000,0,53.0,2.0,0,0,44.0,0,0,0,0,1,0,0,0,1,1,12.0,0,0,0,1
2024-12-08,2024-12-08,https://www.otodom.pl/pl/oferta/kawalerka-19-dzielnica-centrym-wola-warszawa-ID4tOS1,5.0,district,owner,"ul. Kolejowa, Czyste, Wola, Warszawa, mazowieckie",52.22689,20.982529,0,1,apartment,0,Wola,4000,0,32.0,1.0,0,0,6.0,0,1,0,0,0,0,0,0,0,0,,0,1,0,0
2024-12-08,2024-12-12,https://www.otodom.pl/pl/oferta/kawalerka-na-saskiej-kepie-od-stycznia-2025-ID4tP2S,2.0,district,owner,"ul. Zwycięzców, Saska Kępa, Praga-Południe, Warszawa, mazowieckie",52.232206,21.059487,0,0,tenement,0,Praga_Poludnie,2400,0,21.0,1.0,1,1,3.0,0,0,0,0,0,0,0,1,0,0,,0,0,0,0
2024-12-08,2024-12-08,https://www.otodom.pl/pl/oferta/komfortowe-m2-w-otoczeniu-zieleni-przy-metrze-ID4tiFj,2.0,district,agency,"Huta, Bielany, Warszawa, mazowieckie",52.29332,20.92866,1,0,block_of_flats,0,Bielany,3000,650,35.0,2.0,0,0,3.0,0,1,0,0,0,0,0,0,1,0,61.0,0,1,1,1
2024-12-08,2024-12-12,https://www.otodom.pl/pl/oferta/komfortowy-jasny-apartament-w-miasteczku-wilanow-ID4tOHg,2.0,,agency,"ul. Adama Branickiego, Błonia Wilanowskie, Wilanów, Warszawa, mazowieckie",52.15517,21.07247,0,1,apartment,0,Wilanow,6000,1200,71.0,3.0,0,0,4.0,0,1,0,0,1,0,0,0,1,1,6.0,0,0,1,0
2024-12-08,2024-12-08,https://www.otodom.pl/pl/oferta/luksusowy-4-pokojowy-apartament-na-wynajem-ID4tnrN,3.0,district,agency,"al. Aleje Jerozolimskie, Stare Włochy, Włochy, Warszawa, mazowieckie",52.199091,20.930355,0,1,apartment,1,Wlochy,8000,730,116.0,4.0,0,0,3.0,0,1,1,0,1,0,0,0,0,1,9.0,1,1,1,1
2024-12-08,2024-12-08,https://www.otodom.pl/pl/oferta/luksusowy-apartament-3-pokoje-pierwszy-najemca-ID4t8Su,1.0,,agency,"ul. Herbu Janina, Błonia Wilanowskie, Wilanów, Warszawa, mazowieckie",52.154029,21.077888,0,1,apartment,1,Wilanow,6400,800,78.4,3.0,0,1,3.0,0,0,1,1,1,0,0,0,1,0,,0,0,1,0
2024-12-08,2024-12-09,https://www.otodom.pl/pl/oferta/mieszkanie-160-m-warszawa-ID4sU4K,5.0,district,agency,"al. Aleja Jana Pawła II, Nowolipki, Wola, Warszawa, mazowieckie",52.248896,20.986819,0,1,apartment,1,Wola,10000,0,160.0,5.0,0,0,9.0,0,1,0,0,1,0,0,0,0,1,6.0,1,1,0,0
2024-12-08,2024-12-17,https://www.otodom.pl/pl/oferta/nowe-mieszkanie-2-pokojowe-34m2-bemowo-ul-lazurowa-ID4tOJM,1.0,district,owner,"Chrzanów, Bemowo, Warszawa, mazowieckie",52.226772,20.895642,1,1,block_of_flats,1,Bemowo,3300,518,34.0,2.0,1,0,,0,1,0,0,0,0,0,0,0,0,1.0,0,0,1,0
2024-12-08,2024-12-08,https://www.otodom.pl/pl/oferta/wlochy-63m2-3-pokoje-garaz-klima-0-prowizji-ID4tHE6,6.0,district,agency,"Stare Włochy, Włochy, Warszawa, mazowieckie",52.198333,20.924922,1,1,apartment,1,Wlochy,4700,1000,63.0,3.0,0,1,6.0,0,1,0,0,1,0,0,0,1,1,,1,1,1,1
2024-12-08,2024-12-08,https://www.otodom.pl/pl/oferta/wlochy-mieszkanie-3-pokojowe-z-garazem-ID4tmB0,5.0,district,agency,"ul. Łopuszańska 55, Raków, Włochy, Warszawa, mazowieckie",52.193681,20.938441,0,1,block_of_flats,0,Wlochy,5200,900,56.0,3.0,1,0,,0,1,0,0,1,0,0,0,0,0,,0,1,1,0
2024-12-08,2024-12-08,https://www.otodom.pl/pl/oferta/wyjatkowy-apartament-na-solcu-od-zaraz-ID4sa7r,1.0,district,agency,"ul. Rozbrat, Śródmieście Południowe, Śródmieście, Warszawa, mazowieckie",52.23214,21.0267,0,0,block_of_flats,0,Srodmiescie,9900,0,115.0,4.0,0,0,4.0,0,1,0,0,0,1,1,1,0,0,86.0,0,0,0,0
2024-12-08,2024-12-08,https://www.otodom.pl/pl/oferta/wynajme-kawalerke-w-rembertowie-ID4tCTh,1.0,,owner,"Stary Rembertów, Rembertów, Warszawa, mazowieckie",52.270307,21.151832,1,1,block_of_flats,1,Rembertow,2000,650,30.0,1.0,0,0,4.0,0,1,0,0,1,0,0,0,1,1,,0,0,0,0
2024-12-08,2024-12-15,https://www.otodom.pl/pl/oferta/wynajme-mieszkanie-bialoleka-64m-ID4tP3S,3.0,district,owner,"ul. Żeglugi Wiślanej, Kobiałka, Białołęka, Warszawa, mazowieckie",52.360711,21.036641,0,1,block_of_flats,0,Bialoleka,3400,0,64.0,3.0,0,0,3.0,0,1,0,0,1,0,1,0,1,1,,0,0,1,0
2024-12-09,2024-12-16,https://www.otodom.pl/pl/oferta/0-prowizji-eleganckie-m4-srodmiescie-ID4tPeU,1.0,,agency,"ul. Stefanii Sempołowskiej, Śródmieście Południowe, Śródmieście, Warszawa, mazowieckie",52.21876,21.01973,0,0,other,0,Srodmiescie,4500,1200,83.0,4.0,0,0,5.0,0,1,0,0,1,0,0,0,0,0,,0,0,1,0
2024-12-09,2024-12-20,https://www.otodom.pl/pl/oferta/2-odzielne-pokoje-54m2-przy-bluecity-balkon-garaz-ID4tPZ2,1.0,district,agency,"ul. Opaczewska, Szczęśliwice, Ochota, Warszawa, mazowieckie",52.21071,20.96465,0,1,block_of_flats,1,Ochota,2549,900,54.6,2.0,0,0,6.0,0,1,0,0,1,1,0,0,1,0,25.0,1,1,1,0
2024-12-09,2024-12-19,https://www.otodom.pl/pl/oferta/2-pokojowe-38-m2-mokotow-czerniakowska-gagarina-ID4tQbD,8.0,district,owner,"ul. Czerniakowska, Czerniaków, Mokotów, Warszawa, mazowieckie",52.208111,21.049179,0,1,block_of_flats,0,Mokotow,2900,750,38.0,2.0,1,1,10.0,0,1,0,0,0,1,0,0,0,0,,1,1,1,1
2024-12-09,2024-12-19,https://www.otodom.pl/pl/oferta/2-pokojowe-mieszkanie-bohema-szwedzka-ID4tQc4,2.0,district,owner,"ul. Szwedzka 30, Nowa Praga, Praga-Północ, Warszawa, mazowieckie",52.2633,21.02832,0,1,block_of_flats,0,Praga_Polnoc,4000,0,42.0,2.0,1,0,6.0,0,1,0,0,0,0,0,0,1,1,4.0,0,1,1,0
2024-12-09,2024-12-09,https://www.otodom.pl/pl/oferta/2-pokojowe-mieszkanie-w-srodmiesciu-ID4sq4I,4.0,district,agency,"ul. Złota, Mirów, Wola, Warszawa, mazowieckie",52.22917,20.99695,0,1,apartment,1,Wola,5600,420,47.0,2.0,0,0,8.0,0,1,0,0,1,0,0,0,0,0,5.0,0,0,1,1
2024-12-09,2024-12-09,https://www.otodom.pl/pl/oferta/2-pokojowy-apartament-na-wole-od-zaraz-ID4tEY2,4.0,,agency,"Kolejowa (Osiedle 19. Dzielnica), Ulrychów, Wola, Warszawa, mazowieckie",52.23338,20.95718,0,1,other,0,Wola,4350,850,40.0,2.0,0,0,4.0,0,1,0,0,1,0,1,0,0,1,4.0,0,0,1,0
2024-12-09,2024-12-09,https://www.otodom.pl/pl/oferta/3-pok-mieszkanie-z-tarasem-metro-plocka-ID4smgV,4.0,,agency,"ul. Ludwiki, Czyste, Wola, Warszawa, mazowieckie",52.230139,20.965086,0,1,other,0,Wola,9000,1050,72.04,3.0,0,0,,0,1,1,0,1,0,0,0,0,0,,0,0,1,0
2024-12-09,2024-12-09,https://www.otodom.pl/pl/oferta/3-pokoje-71-m2-wysoki-standart-zoliborz-ID4tFX5,4.0,district,agency,"ul. Kaliny Jędrusik, Sady Żoliborskie, Żoliborz, Warszawa, mazowieckie",52.256687,20.964648,0,0,block_of_flats,1,Zoliborz,8500,1300,71.0,3.0,0,0,5.0,0,0,0,0,0,0,0,0,1,1,,0,0,1,1
2024-12-09,2024-12-15,https://www.otodom.pl/pl/oferta/3-pokoje-przy-placu-szembeka-ID4tQbK,2.0,district,agency,"ul. Osowska, Grochów, Praga-Południe, Warszawa, mazowieckie",52.246009,21.103766,0,0,block_of_flats,0,Praga_Poludnie,3900,1000,75.1,3.0,0,0,6.0,0,1,0,0,1,0,0,0,1,1,19.0,1,1,1,1
2024-12-09,2024-12-21,https://www.otodom.pl/pl/oferta/3-pokojowe-mieszkanie-przy-ulicy-grochowskiej-ID4tP5Q,2.0,,owner,"ul. Grochowska, Grochów, Praga-Południe, Warszawa, mazowieckie",52.24491,21.088778,0,1,block_of_flats,1,Praga_Poludnie,3300,900,50.0,3.0,0,0,3.0,0,0,0,0,0,0,0,1,0,0,,0,1,1,0
2024-12-09,2024-12-09,https://www.otodom.pl/pl/oferta/3-pokojowe-mieszkanie-z-garazem-ul-dolna-ID4sQud,1.0,,agency,"Sielce, Mokotów, Warszawa, mazowieckie",52.200612,21.029657,1,0,other,0,Mokotow,5500,1400,71.0,3.0,0,0,,0,0,0,0,0,0,0,0,0,0,,0,0,0,0
2024-12-09,2024-12-20,https://www.otodom.pl/pl/oferta/3-pokojowe-przestronne-mieszkanie-ul-k-jedrusik-ID4lzht,6.0,gas,owner,"ul. Kaliny Jędrusik 9, Sady Żoliborskie, Żoliborz, Warszawa, mazowieckie",52.256687,20.964648,0,1,block_of_flats,1,Zoliborz,8000,1640,86.0,3.0,0,1,6.0,0,1,0,0,1,0,0,0,1,1,8.0,1,1,1,0
2024-12-09,2024-12-09,https://www.otodom.pl/pl/oferta/3-pokojowy-apartament-na-mokotowie-od-zaraz-ID4tEYH,6.0,,agency,"ul. Domaniewska 24, Wierzbno, Mokotów, Warszawa, mazowieckie",52.19832,21.01715,0,0,apartment,0,Mokotow,6900,1300,70.0,3.0,0,1,8.0,0,1,0,0,1,0,1,0,0,1,2.0,0,0,1,0
2024-12-09,2024-12-09,https://www.otodom.pl/pl/oferta/3-pokojowy-apartament-na-powislu-od-zaraz-ID4tEyV,1.0,district,agency,"ul. Bednarska 10, Powiśle, Powiśle, Śródmieście, Warszawa, mazowieckie",52.245394,21.018642,0,0,tenement,1,Srodmiescie,5000,900,53.0,3.0,0,0,2.0,0,0,0,0,0,0,0,1,0,0,117.0,0,0,1,0
2024-12-09,2024-12-09,https://www.otodom.pl/pl/oferta/4-pokojowe-mieszkanie-mokotow-pl-ukr-eng-ID4tCCV,4.0,,agency,"ul. Cybernetyki, Służewiec, Mokotów, Warszawa, mazowieckie",52.176451,20.993539,0,1,apartment,0,Mokotow,5900,900,77.0,4.0,0,0,5.0,0,1,0,0,1,0,0,0,0,1,,1,1,1,1
2024-12-09,2024-12-21,https://www.otodom.pl/pl/oferta/60-m2-przy-forcie-skorosze-ursus-ID4tPtn,4.0,district,owner,"Śródmieście Północne, Śródmieście, Warszawa, mazowieckie",52.23614,21.00817,1,1,block_of_flats,1,Srodmiescie,3200,910,60.3,2.0,0,1,6.0,0,1,0,0,1,0,1,0,1,1,3.0,1,1,1,1
2024-12-09,2024-12-09,https://www.otodom.pl/pl/oferta/apartament-cybernetyki-ID4sRjl,6.0,,agency,"ul. Cybernetyki, Służewiec, Mokotów, Warszawa, mazowieckie",52.176451,20.993539,0,0,block_of_flats,0,Mokotow,5000,0,50.0,2.0,0,0,8.0,0,0,0,0,0,0,0,0,0,0,,0,0,0,0
2024-12-09,2024-12-21,https://www.otodom.pl/pl/oferta/apartament-dwupokojowy-przy-bialej-ID4tQcd,6.0,district,owner,"ul. Biała, Mirów, Wola, Warszawa, mazowieckie",52.238689,20.991335,0,1,apartment,1,Wola,4200,1000,44.0,2.0,1,1,6.0,0,0,0,0,1,0,0,0,1,1,13.0,1,1,1,1
2024-12-09,2024-12-21,https://www.otodom.pl/pl/oferta/apartament-premium-ochota-2-pok-pieknie-urzadzony-ID4tPdu,4.0,district,owner,"ul. Szczęśliwicka 54, Stara Ochota, Ochota, Warszawa, mazowieckie",52.215334,20.968901,0,1,apartment,1,Ochota,5500,950,45.0,2.0,0,0,6.0,0,1,0,0,1,0,0,0,1,1,6.0,1,1,1,1
2024-12-09,2024-12-09,https://www.otodom.pl/pl/oferta/apartament-przy-metrze-wilanowska-ID4sY7h,1.0,district,owner,"ul. Puławska, Służew, Mokotów, Warszawa, mazowieckie",52.178727,21.021217,0,1,apartment,1,Mokotow,3800,900,52.0,2.0,0,1,4.0,0,1,0,0,1,0,0,0,1,1,9.0,1,1,1,0
2024-12-09,2024-12-16,https://www.otodom.pl/pl/oferta/apartament-trzypokojowy-ursynow-przy-ul-poleczki-ID4tQdi,,district,agency,"ul. polki 1c, Wyczółki, Ursynów, Warszawa, mazowieckie",52.151288,21.004583,0,1,other,1,Ursynow,3500,700,52.0,3.0,0,1,,0,1,0,0,1,0,1,0,0,1,5.0,0,1,1,1
2024-12-09,2024-12-09,https://www.otodom.pl/pl/oferta/apartment-in-wilanow-50m2-bezposredniodirect-ID4klf5,1.0,district,owner,"Błonia Wilanowskie, Wilanów, Warszawa, mazowieckie",52.161156,21.071595,1,1,block_of_flats,1,Wilanow,3300,900,50.0,2.0,0,1,4.0,0,1,0,0,0,0,0,0,1,1,16.0,0,1,1,0
2024-12-09,2024-12-19,https://www.otodom.pl/pl/oferta/ciche-blisko-lazienek-krolewskich-ul-czerska-ID4tPqZ,1.0,district,owner,"ul. Czerska, Sielce, Mokotów, Warszawa, mazowieckie",52.205036,21.04558,0,0,tenement,0,Mokotow,3000,700,42.0,2.0,0,1,4.0,0,0,0,0,0,0,0,0,0,1,,0,0,1,0
2024-12-09,2024-12-09,https://www.otodom.pl/pl/oferta/do-wynajecia-3-pokoje-w-starej-milosnej-ID4tQ3t,2.0,gas,agency,"Stara Miłosna, Wesoła, Warszawa, mazowieckie",52.22319,21.238,1,0,apartment,0,Wesola,3000,0,54.6,3.0,0,0,3.0,0,0,0,0,1,0,0,0,0,1,5.0,0,0,1,0
2024-12-09,2024-12-09,https://www.otodom.pl/pl/oferta/dostepne-od-zaraz-idealne-dla-singla-lub-pary-ID4tPQq,2.0,gas,agency,"ul. Marchołta, Henryków, Białołęka, Warszawa, mazowieckie",52.328732,20.971171,0,0,other,0,Bialoleka,2400,600,42.0,1.0,0,0,2.0,0,0,0,0,1,0,0,0,0,0,35.0,0,0,0,0
2024-12-09,2024-12-09,https://www.otodom.pl/pl/oferta/duze-trzypokojowe-mieszkanie-swiezo-po-remoncie-ID4sTZs,1.0,gas,agency,"ul. Cegłowska, Stare Bielany, Bielany, Warszawa, mazowieckie",52.281415,20.956445,0,0,other,0,Bielany,3900,0,52.0,2.0,0,0,1.0,0,1,0,0,0,0,0,0,0,0,55.0,0,0,0,0
2024-12-09,2024-12-09,https://www.otodom.pl/pl/oferta/duzy-apartament-w-pieknej-kamiennicy-przy-sejmie-ID4tiBv,3.0,,agency,"ul. Górnośląska, Powiśle, Śródmieście, Warszawa, mazowieckie",52.23644,21.02742,0,1,tenement,0,Srodmiescie,7500,2500,136.0,5.0,0,0,,0,0,0,0,0,0,0,0,0,0,99.0,0,0,1,0
2024-12-09,2025-01-04,https://www.otodom.pl/pl/oferta/dwa-pokoje-z-balkonem-i-garazem-w-sasiedztwie-blue-ID4u6FW,2.0,district,agency,"al. Aleja Bohaterów Września, Szczęśliwice, Ochota, Warszawa, mazowieckie",52.212119,20.960927,0,1,apartment,0,Ochota,3400,900,56.0,2.0,0,0,6.0,0,0,0,0,0,0,0,0,1,1,11.0,0,1,0,0
2024-12-09,2024-12-16,https://www.otodom.pl/pl/oferta/dwupokojowe-mieszkanie-na-wynajem-bez-prowizji-ID4tPxg,1.0,,agency,"ul. Poborzańska, Bródno, Targówek, Warszawa, mazowieckie",52.28883,21.02584,0,0,other,0,Targowek,3000,0,42.5,2.0,0,0,6.0,0,0,0,0,0,0,0,0,0,0,55.0,0,0,0,0
2024-12-09,2024-12-19,https://www.otodom.pl/pl/oferta/kameralne-mieszkanie-na-grochowie-ID4tQ5u,1.0,boiler room,owner,"ul. Hetmańska, Gocławek, Praga-Południe, Warszawa, mazowieckie",52.244312,21.110066,0,0,tenement,1,Praga_Poludnie,2600,400,29.0,1.0,0,1,3.0,0,1,0,0,0,1,0,1,0,0,67.0,0,0,0,0
2024-12-09,2024-12-09,https://www.otodom.pl/pl/oferta/kawalerka-blisko-metra-brodno-najem-okazjonalny-ID4tQ9e,3.0,district,owner,"Śródmieście Północne, Śródmieście, Warszawa, mazowieckie",52.23614,21.00817,1,0,block_of_flats,1,Srodmiescie,2300,409,26.0,1.0,0,0,4.0,0,0,0,0,0,1,0,1,0,1,,1,1,0,0
2024-12-09,2024-12-16,https://www.otodom.pl/pl/oferta/kawalerka-herbsta-blisko-metra-ID4tPhW,9.0,district,agency,"ul. Stanisława Herbsta, Ursynów Północny, Ursynów, Warszawa, mazowieckie",52.153792,21.030796,0,1,block_of_flats,1,Ursynow,2500,700,31.3,1.0,1,0,11.0,0,0,0,0,0,1,0,0,0,0,47.0,0,0,0,0
2024-12-09,2024-12-09,https://www.otodom.pl/pl/oferta/luksusowy-apartament-z-ogrodem-zimowym-i-tarasem-ID4tH4o,4.0,district,agency,"ul. Płużańska, Stare Włochy, Włochy, Warszawa, mazowieckie",52.207227,20.925811,0,1,apartment,1,Wlochy,8000,1400,130.0,3.0,0,0,4.0,0,1,1,0,1,0,0,1,0,1,17.0,0,1,0,1
2024-12-09,2024-12-09,https://www.otodom.pl/pl/oferta/luxury-apartments-wola-3-pokoje-ID4rTXG,2.0,district,agency,"Ulrychów, Wola, Warszawa, mazowieckie",52.23338,20.95718,0,1,block_of_flats,1,Wola,11000,1500,80.0,3.0,0,0,6.0,0,0,1,0,1,0,0,0,1,1,1.0,1,1,1,1
2024-12-09,2024-12-09,https://www.otodom.pl/pl/oferta/mieszkanie-2-pok-57m2-bez-prowizji-przy-agorze-ID4oUiO,10.0,district,agency,"ul. Przy Agorze, Wrzeciono, Bielany, Warszawa, mazowieckie",52.289977,20.934955,0,1,block_of_flats,0,Bielany,3440,510,57.0,2.0,0,0,10.0,0,1,0,0,1,0,0,0,0,1,9.0,1,1,0,0
2024-12-09,2024-12-16,https://www.otodom.pl/pl/oferta/mieszkanie-2-pokoje-balkon-komorka-garaz-trocka-ID4tPo0,1.0,district,owner,"ul. Płosa, Targówek Mieszkaniowy, Targówek, Warszawa, mazowieckie",52.28141,21.047837,0,1,block_of_flats,0,Targowek,3340,0,42.32,2.0,1,1,5.0,0,1,0,0,1,0,1,0,1,1,7.0,0,1,1,0
2024-12-09,2024-12-09,https://www.otodom.pl/pl/oferta/mieszkanie-na-powislu-na-cele-mieszkalne-i-biurowe-ID4sTn0,5.0,,agency,"ul. Górnośląska, Solec, Śródmieście, Warszawa, mazowieckie",52.225138,21.033782,0,1,block_of_flats,0,Srodmiescie,8000,2500,145.0,4.0,0,0,,0,1,0,0,1,1,0,0,0,1,,1,1,1,0
2024-12-09,2024-12-21,https://www.otodom.pl/pl/oferta/mieszkanie-przy-wejsciu-do-metra-stoklosy-od-zaraz-ID4tPKY,6.0,district,owner,"ul. Stanisława Herbsta 4, Ursynów Północny, Ursynów, Warszawa, mazowieckie",52.155049,21.032566,0,1,block_of_flats,0,Ursynow,2700,750,31.0,1.0,1,0,11.0,0,0,0,0,0,0,0,0,0,0,,0,0,0,1
2024-12-09,2024-12-09,https://www.otodom.pl/pl/oferta/mieszkanie-warszawa-srodmiescie-ID4slgr,4.0,,agency,"ul. Piękna, Śródmieście Południowe, Śródmieście, Warszawa, mazowieckie",52.22346,21.01895,0,0,other,0,Srodmiescie,15500,0,107.0,4.0,0,0,6.0,0,1,1,0,1,0,0,0,0,0,,0,0,0,0
2024-12-09,2024-12-09,https://www.otodom.pl/pl/oferta/nowe-luksusowe-2-pokoje-z-ogrodkiem-green-mokotow-ID4sRjp,,,agency,"al. Aleja Wilanowska, Stegny, Mokotów, Warszawa, mazowieckie",52.175014,21.044433,0,0,other,0,Mokotow,5200,800,45.0,2.0,0,0,,0,0,0,0,0,0,0,0,0,0,,0,0,0,0
2024-12-09,2024-12-09,https://www.otodom.pl/pl/oferta/nowe-mieszkanie-na-brodnie-targowek-ID43c8m,2.0,district,owner,"Bródno, Targówek, Warszawa, mazowieckie",52.285863,21.026663,1,1,apartment,0,Targowek,3200,1,52.0,2.0,0,1,3.0,0,1,0,1,0,0,1,0,1,1,,0,0,1,0
2024-12-09,2024-12-10,https://www.otodom.pl/pl/oferta/penthouse-z-duzym-tarasem-oraz-sauna-wola-ID4tPEu,9.0,,agency,"ul. Banderii, Młynów, Wola, Warszawa, mazowieckie",52.244722,20.963301,0,1,apartment,0,Wola,9900,1500,107.0,3.0,0,0,9.0,0,1,1,0,1,0,0,0,0,0,16.0,0,0,0,0
2024-12-09,2024-12-09,https://www.otodom.pl/pl/oferta/piekne-nowe-mieszkanie-miejsce-postojowe-ID4sRyl,2.0,,agency,"al. Aleja Lotników, Służew, Mokotów, Warszawa, mazowieckie",52.174918,21.01267,0,0,apartment,0,Mokotow,4600,800,50.0,2.0,0,0,,0,0,0,0,0,0,0,0,0,0,,0,0,0,0
2024-12-09,2024-12-09,https://www.otodom.pl/pl/oferta/piekne-winda-w-apartamencie-taras-umeblowane-ID4tnKY,4.0,district,agency,"Księdza Prymasa Augusta Hlonda, Błonia Wilanowskie, Wilanów, Warszawa, mazowieckie",52.160218,21.072335,0,1,apartment,0,Wilanow,15500,0,147.0,4.0,0,0,4.0,0,0,1,0,1,0,0,0,0,1,17.0,0,0,0,0
2024-12-09,2024-12-12,https://www.otodom.pl/pl/oferta/przestronne-3-pok-przy-metrze-ID4tQ4t,4.0,district,agency,"Bukowińska 22 - metro Wilanowska, Ksawerów, Mokotów, Warszawa, mazowieckie",52.1811,21.0269,0,1,block_of_flats,0,Mokotow,4800,1000,73.32,3.0,0,0,12.0,0,1,0,0,0,0,0,0,0,0,17.0,0,0,0,1
2024-12-09,2024-12-19,https://www.otodom.pl/pl/oferta/przy-porcie-praskim-86m2-3-pok-2-tarasy-klimaty-ID4tPfJ,5.0,district,owner,"Nowa Praga, Praga-Północ, Warszawa, mazowieckie",52.2633,21.02832,1,1,tenement,1,Praga_Polnoc,5500,1100,86.1,3.0,1,1,6.0,0,1,1,0,1,0,1,1,1,1,16.0,1,1,1,1
2024-12-09,2024-12-09,https://www.otodom.pl/pl/oferta/siedmiogrodzka-3-warszawa-mieszkanie-ID4sRjk,4.0,,agency,"ul. Siedmiogrodzka, Czyste, Wola, Warszawa, mazowieckie",52.231759,20.973551,0,0,other,0,Wola,5600,0,39.0,2.0,0,0,,0,0,0,0,0,0,0,0,0,0,,0,0,0,0
2024-12-09,2024-12-09,https://www.otodom.pl/pl/oferta/sprawdz-ustawne-3p-w-centrum-tarchomina-ID4tC9T,1.0,district,agency,"ul. Myśliborska, Tarchomin, Białołęka, Warszawa, mazowieckie",52.318198,20.957039,0,0,block_of_flats,0,Bialoleka,2900,781,53.5,3.0,0,0,3.0,0,1,0,0,1,0,0,0,0,1,21.0,1,1,0,0
2024-12-09,2024-12-20,https://www.otodom.pl/pl/oferta/stylowy-apartament-w-porcie-praskim-bez-prowizji-ID4tPME,2.0,district,agency,"ul. Józefa Sierakowskiego, Stara Praga, Praga-Północ, Warszawa, mazowieckie",52.249414,21.032431,0,1,apartment,0,Praga_Polnoc,6000,0,74.22,2.0,0,1,4.0,0,1,0,0,0,0,0,0,0,1,9.0,0,0,1,0
2024-12-09,2024-12-09,https://www.otodom.pl/pl/oferta/wyjatkowy-apartament-w-miasteczku-wilanow-od-juz-ID4tGdG,3.0,district,agency,"ul. Aleksandra Gieysztora, Błonia Wilanowskie, Wilanów, Warszawa, mazowieckie",52.160458,21.083189,0,1,block_of_flats,0,Wilanow,16000,3200,150.0,4.0,0,1,3.0,0,0,1,0,1,0,0,0,1,1,11.0,0,1,1,1
2024-12-09,2024-12-19,https://www.otodom.pl/pl/oferta/wynajme-2-pokojowe-mieszkanie-na-ursusie-45m2-ID4tPz3,5.0,district,owner,"ul. Herbu Oksza, Szamoty, Ursus, Warszawa, mazowieckie",52.201481,20.885939,0,1,block_of_flats,0,Ursus,3300,680,45.0,2.0,0,1,7.0,0,1,0,0,1,0,0,0,1,0,3.0,0,0,1,0
2024-12-09,2024-12-19,https://www.otodom.pl/pl/oferta/wynajme-50m2-wawrzyszew-blisko-metra-garaz-ID4tQ9L,3.0,district,owner,"Wawrzyszew, Bielany, Warszawa, mazowieckie",52.281986,20.928016,0,0,block_of_flats,0,Bielany,3200,1000,50.0,2.0,0,1,3.0,0,1,0,0,1,1,1,0,1,1,23.0,1,1,1,0
2024-12-09,2024-12-20,https://www.otodom.pl/pl/oferta/wynajme-mieszkanie-osiedle-zoliborz-artystyczny-ID4tQ7U,2.0,district,owner,"Stary Żoliborz, Żoliborz, Warszawa, mazowieckie",52.26971,20.98462,1,1,block_of_flats,1,Zoliborz,3400,800,43.0,2.0,0,0,5.0,0,1,0,0,1,0,0,0,1,1,7.0,1,1,1,0
2024-12-10,2024-12-10,https://www.otodom.pl/pl/oferta/2-pokoje-w-zadbanej-kamienicy-przy-metrze-wierzbno-ID4tjYZ,1.0,district,agency,"Wierzbno, Mokotów, Warszawa, mazowieckie",52.19208,21.02024,1,0,tenement,0,Mokotow,3900,579,48.3,2.0,0,0,2.0,0,0,0,0,0,1,0,1,1,0,75.0,0,0,0,0
2024-12-10,2024-12-17,https://www.otodom.pl/pl/oferta/2-pokojowe-mieszkanie-46-m2-z-garazem-i-klima-ID4tBw5,5.0,district,agency,"Czerniaków, Mokotów, Warszawa, mazowieckie",52.193111,21.049015,1,1,apartment,1,Mokotow,3550,650,46.0,2.0,1,1,5.0,0,1,0,0,1,0,0,0,1,1,5.0,0,0,1,1
2024-12-10,2024-12-10,https://www.otodom.pl/pl/oferta/3-pokoje-66m-metro-mokotow-ul-bukowinska-ID4tg7c,7.0,district,agency,"ul. Bukowińska 26C, Ksawerów, Mokotów, Warszawa, mazowieckie",52.183739,21.02554,0,1,apartment,0,Mokotow,4300,900,66.0,3.0,0,0,,0,1,0,0,1,0,0,0,0,0,,0,0,1,0
2024-12-10,2024-12-10,https://www.otodom.pl/pl/oferta/al-lotnikow-2pok-garaz-nowe-ID4tRyI,4.0,,agency,"al. Aleja Lotników, Służew, Mokotów, Warszawa, mazowieckie",52.17459,21.01001,0,0,apartment,0,Mokotow,3450,0,52.68,2.0,0,0,5.0,0,1,0,0,1,0,0,0,0,0,,0,0,1,0
2024-12-10,2024-12-11,https://www.otodom.pl/pl/oferta/apartament-i-4-pokoje-i-sarmacka-wilanow-ID4tQQ0,2.0,district,agency,"Błonia Wilanowskie, Wilanów, Warszawa, mazowieckie",52.164094,21.072175,1,1,apartment,0,Wilanow,10500,1500,95.0,4.0,0,0,3.0,0,1,0,0,1,0,0,0,0,0,17.0,0,0,1,0
2024-12-10,2024-12-17,https://www.otodom.pl/pl/oferta/atrakcyjne-3-pokoje-super-lokalizacja-ID4tQP9,1.0,district,agency,"ul. Myśliborska, Tarchomin, Białołęka, Warszawa, mazowieckie",52.31294,20.964928,0,0,block_of_flats,1,Bialoleka,3200,803,56.0,3.0,0,1,3.0,0,1,0,0,1,0,0,0,1,0,23.0,1,1,1,0
2024-12-10,2024-12-10,https://www.otodom.pl/pl/oferta/bez-prowizji-mieszkanie-z-widokiem-na-zielen-ID4tRfN,2.0,district,agency,"ul. Powązkowska, Sady Żoliborskie, Żoliborz, Warszawa, mazowieckie",52.25793,20.96352,0,1,block_of_flats,0,Zoliborz,2945,0,36.0,2.0,0,0,6.0,0,1,0,0,1,0,0,0,0,0,,0,0,1,0
2024-12-10,2024-12-10,https://www.otodom.pl/pl/oferta/blisko-do-stacji-metra-ulrychow-ID4tQw2,1.0,,agency,"ul. Zaborowska, Górce, Bemowo, Warszawa, mazowieckie",52.24388,20.923022,0,1,block_of_flats,0,Bemowo,4000,850,71.2,3.0,0,0,8.0,0,0,1,0,0,0,0,0,1,1,15.0,0,0,0,0
2024-12-10,2024-12-10,https://www.otodom.pl/pl/oferta/dla-singla-lub-pary-w-sasiedztwie-lasu-na-kole-ID4tHhb,8.0,district,owner,"ul. Przy Lasku, Koło, Wola, Warszawa, mazowieckie",52.248587,20.952077,0,1,block_of_flats,1,Wola,3600,490,43.0,2.0,0,0,10.0,0,1,0,0,0,1,0,0,0,1,49.0,1,1,1,0
2024-12-10,2024-12-18,https://www.otodom.pl/pl/oferta/dwupietrowe-mieszkanie-obok-galerii-mokotow-ogrod-ID4tRCU,1.0,,agency,"ul. Głogowa, Wyględów, Mokotów, Warszawa, mazowieckie",52.19183,21.00014,0,0,other,0,Mokotow,7800,0,110.0,3.0,0,0,3.0,0,0,0,0,0,0,0,0,0,0,,0,0,0,0
2024-12-10,2024-12-20,https://www.otodom.pl/pl/oferta/ekskluzywne-2-pok-45-m2-garaz-royal-residence-ID4tQoJ,4.0,district,agency,"Jerzego Holzera 6, Błonia Wilanowskie, Wilanów, Warszawa, mazowieckie",52.156378,21.083846,0,1,apartment,0,Wilanow,3600,730,45.0,2.0,0,0,4.0,0,1,0,0,1,0,0,1,0,1,1.0,0,0,1,0
2024-12-10,2024-12-14,https://www.otodom.pl/pl/oferta/klimatyczne-mieszkanie-w-kamienicy-ID4tRFG,3.0,district,agency,"ul. Elektoralna, Śródmieście Północne, Śródmieście, Warszawa, mazowieckie",52.24083,21.00024,0,0,tenement,0,Srodmiescie,3100,1000,49.0,2.0,0,0,3.0,0,0,0,0,0,0,0,0,0,0,121.0,0,0,1,0
2024-12-10,2024-12-10,https://www.otodom.pl/pl/oferta/mieszkanie-2-pok-53m2-garaz-ID4tRyH,3.0,,agency,"al. Aleja Lotników, Służew, Mokotów, Warszawa, mazowieckie",52.17459,21.01001,0,0,apartment,0,Mokotow,3350,0,52.68,2.0,0,0,5.0,0,1,0,0,1,0,0,0,0,0,,0,0,1,0
2024-12-10,2024-12-20,https://www.otodom.pl/pl/oferta/mieszkanie-na-mokotowie-os-stegny-ul-kaukaska-ID4tQME,7.0,district,agency,"ul. Kaukaska, Stegny, Mokotów, Warszawa, mazowieckie",52.180452,21.051045,0,1,block_of_flats,1,Mokotow,3800,0,50.0,2.0,1,0,10.0,0,0,0,0,0,1,0,0,0,0,30.0,0,1,1,0
2024-12-10,2024-12-10,https://www.otodom.pl/pl/oferta/mieszkanie-warszawa-bielany-ul-niedzielskiego-79m-ID4g7ll,2.0,,owner,"ul. płk. Mieczysława Niedzielskiego ""Żywiciela"", Piaski, Bielany, Warszawa, mazowieckie",52.268333,20.941268,0,1,apartment,0,Bielany,5300,900,79.1,3.0,0,1,,0,1,0,0,1,0,0,0,1,1,11.0,0,1,1,0
2024-12-10,2024-12-17,https://www.otodom.pl/pl/oferta/ms906076-ID4tRky,3.0,district,agency,"ul. Mołdawska, Rakowiec, Ochota, Warszawa, mazowieckie",52.1992,20.97762,0,1,apartment,0,Ochota,3500,1000,52.45,2.0,0,0,6.0,0,0,0,0,0,0,0,0,0,0,17.0,0,0,0,0
2024-12-10,2024-12-18,https://www.otodom.pl/pl/oferta/niepowtarzalny-klimat-starego-mokotowa-ID4tQhh,1.0,district,agency,"ul. Jarosława Dąbrowskiego, Stary Mokotów, Mokotów, Warszawa, mazowieckie",52.20085,21.00898,0,0,block_of_flats,0,Mokotow,3200,1010,52.0,3.0,0,0,3.0,0,1,0,0,0,0,0,0,0,0,73.0,0,0,1,0
2024-12-10,2024-12-16,https://www.otodom.pl/pl/oferta/nowe-mieszkanie-2-pok-na-wynajem-ul-jagiellonska-ID4tRGu,5.0,,agency,"ul. Jagiellońska, Pelcowizna, Praga-Północ, Warszawa, mazowieckie",52.27073,21.01509,0,0,other,0,Praga_Polnoc,3100,700,42.0,2.0,0,0,6.0,0,1,0,0,0,0,0,0,0,0,1.0,0,0,0,0
2024-12-10,2024-12-20,https://www.otodom.pl/pl/oferta/nowe-nigdy-niezamieszkale-3-pok-al-wilanowska-ID4tQz5,1.0,district,agency,"Stegny, Mokotów, Warszawa, mazowieckie",52.174202,21.049803,1,1,apartment,0,Mokotow,6999,1300,70.0,3.0,0,0,6.0,0,1,0,0,1,0,0,0,0,1,1.0,0,0,1,0
2024-12-10,2024-12-21,https://www.otodom.pl/pl/oferta/nowoczesne-i-komfortowe-3-pokoje-duzy-taras-ID4tRzO,8.0,,agency,"ul. Cybernetyki, Służewiec, Mokotów, Warszawa, mazowieckie",52.17676,20.99149,0,1,apartment,0,Mokotow,5000,0,76.0,3.0,0,0,9.0,0,1,0,0,1,0,0,0,0,0,7.0,0,0,0,0
2024-12-10,2024-12-10,https://www.otodom.pl/pl/oferta/nowoczesne-nowe-budownictwo-od-zaraz-ID4tRx8,4.0,,agency,"ul. Herbu Oksza, Szamoty, Ursus, Warszawa, mazowieckie",52.20119,20.88675,0,1,other,0,Ursus,2750,520,35.0,2.0,0,0,9.0,0,1,0,0,1,0,0,0,0,0,,0,0,1,0
2024-12-10,2024-12-12,https://www.otodom.pl/pl/oferta/nowoczesny-apartament-blisko-browarow-warszawskich-ID4tQtm,9.0,district,agency,"ul. Siedmiogrodzka, Czyste, Wola, Warszawa, mazowieckie",52.231759,20.973551,0,1,apartment,0,Wola,7000,1300,72.0,3.0,0,0,15.0,0,1,0,0,1,0,0,1,1,1,9.0,1,0,0,0
2024-12-10,2024-12-10,https://www.otodom.pl/pl/oferta/nowoczesny-apartament-super-lokalizacja-ID4teok,5.0,,agency,"Błonia Wilanowskie, Wilanów, Warszawa, mazowieckie",52.13889,21.07361,1,1,other,0,Wilanow,3300,0,48.0,2.0,0,0,,0,1,0,0,0,0,0,0,0,0,11.0,0,0,0,0
2024-12-10,2024-12-10,https://www.otodom.pl/pl/oferta/ostatnie-pietro-taras-garaz-i-komorka-pl-eng-ID4p7bU,8.0,district,agency,"ul. Jana Kazimierza, Odolany, Wola, Warszawa, mazowieckie",52.221991,20.93224,0,1,apartment,1,Wola,3950,650,53.0,2.0,0,1,8.0,0,1,1,0,1,0,1,1,1,1,11.0,1,1,1,0
2024-12-10,2024-12-10,https://www.otodom.pl/pl/oferta/piekne-2-pok-gotowe-do-zamieszkania-7-pietro-ID4sMey,7.0,district,agency,"ul. Posag 7 Panien, Szamoty, Ursus, Warszawa, mazowieckie",52.20298,20.88096,0,1,apartment,1,Ursus,3100,500,32.61,2.0,0,0,7.0,0,1,0,0,0,0,0,0,1,1,4.0,1,1,0,0
2024-12-10,2024-12-29,https://www.otodom.pl/pl/oferta/pl-ua-ru-4-pokoje-mokotow-balkon-parking-gratis-ID4u32Z,2.0,,agency,"Wierzbno, Mokotów, Warszawa, mazowieckie",52.19832,21.01715,1,1,apartment,1,Mokotow,5500,1500,99.0,4.0,0,0,6.0,0,1,1,0,1,1,0,0,1,1,17.0,0,0,1,0
2024-12-10,2024-12-11,https://www.otodom.pl/pl/oferta/pl-ua-ru-balkon-2-pokoje-zoliborz-ID4tRdH,3.0,,agency,"Sady Żoliborskie, Żoliborz, Warszawa, mazowieckie",52.262,20.96827,1,1,apartment,0,Zoliborz,4000,920,54.0,2.0,0,0,6.0,0,1,0,0,0,0,0,0,1,1,10.0,1,1,1,0
2024-12-10,2024-12-20,https://www.otodom.pl/pl/oferta/prestizowe-3-mieszkanie-mokotow-siekierki-ID4tQPo,1.0,,owner,"ul. Dywizjonu AK ""Jeleń"", Siekierki, Mokotów, Warszawa, mazowieckie",52.20589,21.068529,0,1,other,0,Mokotow,4900,830,57.0,3.0,0,1,4.0,0,0,1,0,1,0,0,0,1,1,3.0,1,1,1,0
2024-12-10,2024-12-19,https://www.otodom.pl/pl/oferta/przestronne-2-pok-na-ursynowie-metro-stoklosy-ID4tQh2,3.0,district,agency,"ul. Zięby, Stary Imielin, Ursynów, Warszawa, mazowieckie",52.15015,21.02677,0,1,apartment,0,Ursynow,3500,467,62.0,2.0,0,0,4.0,0,1,0,0,1,0,0,0,0,0,6.0,0,0,1,0
2024-12-10,2024-12-10,https://www.otodom.pl/pl/oferta/przestronne-3-p-mieszkanie-ul-jana-kazimierza-ID4tHho,1.0,district,agency,"ul. Jana Kazimierza, Odolany, Wola, Warszawa, mazowieckie",52.2232,20.938849,0,1,apartment,0,Wola,9000,1300,84.0,3.0,0,0,10.0,0,1,0,0,1,0,0,0,1,1,11.0,1,1,1,0
2024-12-10,2024-12-10,https://www.otodom.pl/pl/oferta/przestronne-dwupokojowe-mieszkanie-stary-mokotow-ID4tQqk,2.0,district,agency,"ul. Boryszewska, Stary Mokotów, Mokotów, Warszawa, mazowieckie",52.2023,21.02481,0,1,block_of_flats,0,Mokotow,4000,1000,63.0,2.0,0,0,5.0,0,1,0,0,1,0,0,0,1,0,11.0,0,0,1,1
2024-12-10,2024-12-10,https://www.otodom.pl/pl/oferta/rezerwacja-do-22-12-ID4trNk,3.0,district,agency,"ul. Moliera, Śródmieście Północne, Śródmieście, Warszawa, mazowieckie",52.245623,21.012341,0,1,block_of_flats,1,Srodmiescie,3150,0,26.0,1.0,0,0,6.0,0,1,0,0,0,0,0,1,1,0,65.0,1,1,0,1
2024-12-10,2024-12-10,https://www.otodom.pl/pl/oferta/trzech-pokojowe-mieszkanie-na-bliskiej-woli-ID4tQt0,1.0,electric,agency,"Ulrychów, Wola, Warszawa, mazowieckie",52.23338,20.95718,1,0,apartment,0,Wola,4900,600,55.0,3.0,1,0,10.0,0,1,1,0,1,0,0,0,0,0,1.0,0,1,1,0
2024-12-10,2024-12-10,https://www.otodom.pl/pl/oferta/wola-nowa-apartament-z-garazem-ID4sWtr,3.0,district,agency,"ul. Jana Kazimierza, Odolany, Wola, Warszawa, mazowieckie",52.22371,20.94138,0,1,apartment,1,Wola,3300,725,39.98,2.0,0,0,7.0,0,0,0,0,0,0,0,0,1,1,4.0,1,1,1,0
2024-12-10,2024-12-18,https://www.otodom.pl/pl/oferta/wynajem-bemowo-pelczynskiego-3-pokoje-5-min-metro-ID4tQQG,5.0,district,agency,"ul. gen. Tadeusza Pełczyńskiego, Górce, Bemowo, Warszawa, mazowieckie",52.241911,20.905373,0,1,block_of_flats,1,Bemowo,4300,1000,71.0,3.0,0,0,6.0,0,1,0,0,1,0,1,0,1,1,13.0,0,0,1,0
2024-12-10,2024-12-20,https://www.otodom.pl/pl/oferta/wynajme-bezposrednio-3pokojowe-mieszkanie-mokotow-ID4tQmq,5.0,district,owner,"Aleja Gen. Własysława Sikorskiego, Stegny, Mokotów, Warszawa, mazowieckie",52.182478,21.044201,0,1,apartment,1,Mokotow,4300,1000,81.0,3.0,1,1,10.0,0,1,1,0,1,0,1,0,1,1,15.0,1,1,1,1
2024-12-10,2024-12-20,https://www.otodom.pl/pl/oferta/wynajme-mieszkanie-22-m2-w-centrum-ID4tRl5,2.0,district,agency,"ul. Mordechaja Anielewicza, Nowolipki, Wola, Warszawa, mazowieckie",52.24629,20.98457,0,0,block_of_flats,1,Wola,2600,0,22.0,1.0,0,0,4.0,0,1,0,0,0,0,0,0,0,1,,1,1,0,0
2024-12-10,2024-12-10,https://www.otodom.pl/pl/oferta/wysoki-standard-nowoczesne-30m2-z-balkonem-garaz-ID4taM4,5.0,district,agency,"ul. Stanisława Kierbedzia, Sielce, Mokotów, Warszawa, mazowieckie",52.19965,21.04588,0,1,block_of_flats,1,Mokotow,2900,600,33.0,1.0,0,0,7.0,0,1,1,0,1,0,1,1,1,0,8.0,1,1,1,0
2024-12-11,2024-12-11,https://www.otodom.pl/pl/oferta/0-2-3-pok-79m2-aneks-dolinka-sluzewiecka-2xbalkon-ID4sS9S,,,agency,"al. Aleja Wyścigowa, Służew, Mokotów, Warszawa, mazowieckie",52.166787,21.011912,0,1,apartment,1,Mokotow,5000,1300,79.0,2.0,0,0,,0,1,0,0,1,0,0,0,1,1,,1,1,1,0
2024-12-11,2024-12-11,https://www.otodom.pl/pl/oferta/2-pok-mieszkanie-na-woli-szulborska-8-ID4toGg,8.0,district,agency,"ul. Szulborska 8, Ulrychów, Wola, Warszawa, mazowieckie",52.23085,20.934294,0,1,block_of_flats,0,Wola,2700,857,37.0,2.0,0,0,10.0,0,0,0,0,0,0,0,0,0,0,55.0,1,1,1,0
2024-12-11,2024-12-21,https://www.otodom.pl/pl/oferta/2-pok-z-widokiem-na-zielen-prywatnosc-parking-ID4tSBA,4.0,district,owner,"Raków, Włochy, Warszawa, mazowieckie",52.197008,20.952623,1,1,block_of_flats,0,Wlochy,3200,560,37.0,2.0,0,0,4.0,0,1,0,0,1,0,0,0,1,0,9.0,1,1,1,0
2024-12-11,2024-12-11,https://www.otodom.pl/pl/oferta/2-pokoje-35-m2-taras-parking-ursus-ID4tHkB,1.0,,agency,"ul. Posag 7 Panien, Szamoty, Ursus, Warszawa, mazowieckie",52.204415,20.880565,0,1,apartment,1,Ursus,2800,650,35.0,2.0,0,0,5.0,0,1,1,1,1,0,0,0,1,1,,1,1,1,0
2024-12-11,2024-12-21,https://www.otodom.pl/pl/oferta/2-pokoje-balkon-pet-friendly-ID4t6op,1.0,boiler room,agency,"ul. Szczęsna, Stare Włochy, Włochy, Warszawa, mazowieckie",52.20958,20.929948,0,0,other,0,Wlochy,3200,770,40.0,2.0,1,0,2.0,0,1,0,0,0,0,0,0,1,1,,0,1,1,0
2024-12-11,2024-12-19,https://www.otodom.pl/pl/oferta/2-pokojowe-mieszkanie-na-miasteczku-wilanow-ID4tS44,2.0,,agency,"al. Aleja Rzeczypospolitej, Błonia Wilanowskie, Wilanów, Warszawa, mazowieckie",52.165184,21.070286,0,1,block_of_flats,0,Wilanow,2850,781,56.0,2.0,1,0,4.0,0,1,0,0,1,0,0,0,0,0,17.0,0,0,1,0
2024-12-11,2024-12-11,https://www.otodom.pl/pl/oferta/3-pokoje-65m2-zoliborz-ul-hubnera-rydygiera-garaz-ID4tScN,3.0,district,agency,"ul. Hubnera, Sady Żoliborskie, Żoliborz, Warszawa, mazowieckie",52.258486,20.968559,0,1,apartment,1,Zoliborz,5000,900,65.0,3.0,0,0,5.0,0,1,0,0,1,0,0,0,1,1,9.0,0,1,1,0
2024-12-11,2024-12-11,https://www.otodom.pl/pl/oferta/3-pokoje-cybernetyki-komputerowa-od-zaraz-ID4sLbR,1.0,district,agency,"ul. Komputerowa, Służewiec, Mokotów, Warszawa, mazowieckie",52.174193,20.990123,0,0,apartment,0,Mokotow,5200,1000,73.0,3.0,0,0,,0,1,0,0,1,0,0,0,0,1,6.0,0,0,1,0
2024-12-11,2024-12-21,https://www.otodom.pl/pl/oferta/3-pokojowe-mieszkanie-na-wynajem-ID4tSbb,6.0,district,agency,"ul. Postępu 12b, Służewiec, Mokotów, Warszawa, mazowieckie",52.17801,20.996466,0,1,apartment,0,Mokotow,6250,1150,72.57,3.0,0,0,,0,1,0,0,1,0,0,0,1,1,,0,0,1,1
2024-12-11,2024-12-11,https://www.otodom.pl/pl/oferta/4-pokoje-domaniewska-2-ogrodki-od-zaraz-ID4tcDq,,district,agency,"ul. Domaniewska, Ksawerów, Mokotów, Warszawa, mazowieckie",52.183326,21.007074,0,1,apartment,0,Mokotow,5900,1000,75.0,4.0,0,0,,0,1,0,1,1,0,0,0,0,1,,0,0,1,0
2024-12-11,2024-12-12,https://www.otodom.pl/pl/oferta/75m2-klimatyczna-kamienica-grochow-goclawek-ID4tRQM,1.0,gas,owner,"Gocławek, Praga-Południe, Warszawa, mazowieckie",52.242179,21.109123,1,0,tenement,0,Praga_Poludnie,5000,300,75.0,4.0,0,0,2.0,0,1,0,1,1,1,1,1,1,0,91.0,0,0,1,0
2024-12-11,2024-12-11,https://www.otodom.pl/pl/oferta/apartamanet-na-pograniczu-wilanow-ursunow-mokotow-ID4tln1,2.0,district,agency,"ul. Fosa, Stary Służew, Ursynów, Warszawa, mazowieckie",52.170135,21.042366,0,0,block_of_flats,0,Ursynow,9500,0,165.0,4.0,0,0,2.0,0,0,1,0,1,1,0,0,0,1,25.0,1,1,1,1
2024-12-11,2024-12-27,https://www.otodom.pl/pl/oferta/apartament-55m2-przy-stacji-m2-plocka-ID4u1IE,9.0,district,agency,"Czyste, Wola, Warszawa, mazowieckie",52.229458,20.958907,1,1,apartment,1,Wola,3200,800,55.0,3.0,0,0,9.0,0,1,0,0,1,0,0,0,0,1,13.0,0,0,0,0
2024-12-11,2024-12-20,https://www.otodom.pl/pl/oferta/bezposrednio-nowa-kawalerka-28m2-wlochy-zwierzeta-ID4tS7a,3.0,district,agency,"Wschodu Słońca 9, Raków, Włochy, Warszawa, mazowieckie",52.200589,20.941898,0,1,block_of_flats,0,Wlochy,2905,305,27.7,1.0,1,0,6.0,0,1,0,0,1,0,0,0,0,1,1.0,0,1,1,0
2024-12-11,2024-12-11,https://www.otodom.pl/pl/oferta/bezposrenio-kawalerka-studio-z-widokiem-ID4tCJa,9.0,district,owner,"ul. św. Bonifacego, Sadyba, Mokotów, Warszawa, mazowieckie",52.185447,21.061483,0,1,block_of_flats,1,Mokotow,2700,400,27.0,1.0,0,1,10.0,0,0,0,0,0,0,0,0,0,0,,1,1,0,0
2024-12-11,2024-12-20,https://www.otodom.pl/pl/oferta/biznesowy-mokotow-2-pokojowe-od-zaraz-ID4tSeP,3.0,,agency,"ul. Postępu, Służewiec, Mokotów, Warszawa, mazowieckie",52.17796,20.99627,0,1,apartment,0,Mokotow,4000,600,50.0,2.0,0,0,7.0,0,1,0,0,1,0,0,0,0,0,,0,0,1,0
2024-12-11,2024-12-11,https://www.otodom.pl/pl/oferta/bliska-wola-tower-27m2-marcina-kasprzaka-ID4sqhB,2.0,district,agency,"ul. Marcina Kasprzaka, Czyste, Wola, Warszawa, mazowieckie",52.227944,20.958622,0,1,apartment,1,Wola,3500,550,27.0,2.0,1,0,15.0,0,1,1,0,0,0,0,0,0,0,5.0,0,1,0,0
2024-12-11,2024-12-20,https://www.otodom.pl/pl/oferta/do-wynajecia-2-pokoje-al-dwudziestolatkow-wlochy-ID4tSsm,2.0,district,agency,"al. Aleja Dwudziestolatków, Okęcie, Włochy, Warszawa, mazowieckie",52.19326,20.968925,0,0,block_of_flats,0,Wlochy,2200,685,37.2,2.0,0,0,4.0,0,0,0,0,0,1,0,0,0,1,49.0,0,0,0,0
2024-12-11,2024-12-11,https://www.otodom.pl/pl/oferta/dwa-pokoje-z-loggia-oraz-garazem-osiedle-wilno-ID4tSaj,3.0,,agency,"ul. Montwiłłowska, Elsnerów, Targówek, Warszawa, mazowieckie",52.27694,21.08491,0,1,block_of_flats,1,Targowek,2700,700,42.0,2.0,0,0,4.0,0,0,0,0,1,0,0,0,0,1,9.0,0,0,1,0
2024-12-11,2024-12-11,https://www.otodom.pl/pl/oferta/dwupokojowe-mieszkanie-swiezo-po-remoncie-ID4tFDK,2.0,district,agency,"ul. Ludowa, Sielce, Mokotów, Warszawa, mazowieckie",52.200961,21.027202,0,0,block_of_flats,0,Mokotow,3700,720,42.29,2.0,0,0,3.0,0,0,0,0,0,0,0,0,0,0,64.0,0,0,1,0
2024-12-11,2024-12-21,https://www.otodom.pl/pl/oferta/dwupokojowe-w-pelni-wyposazone-przy-pkp-grochow-ID4tSyS,3.0,district,owner,"ul. Wiatraczna 29, Grochów, Praga-Południe, Warszawa, mazowieckie",52.25378,21.084379,0,1,block_of_flats,1,Praga_Poludnie,3200,750,42.0,2.0,0,0,5.0,0,1,0,0,0,0,0,0,1,1,8.0,0,1,1,0
2024-12-11,2024-12-11,https://www.otodom.pl/pl/oferta/eleganckie-mieszkanie-na-wilanowie-ID4sHEZ,3.0,,agency,"Błonia Wilanowskie, Wilanów, Warszawa, mazowieckie",52.155759,21.080252,1,1,apartment,0,Wilanow,6700,1300,83.0,3.0,0,0,4.0,0,0,0,0,1,0,0,0,0,0,17.0,0,0,0,0
2024-12-11,2024-12-16,https://www.otodom.pl/pl/oferta/fabryka-na-pradze-50-m-2-pok-balkon-8-m-ID4tSFK,4.0,district,agency,"Nowa Praga, Praga-Północ, Warszawa, mazowieckie",52.2633,21.02832,1,1,apartment,0,Praga_Polnoc,3500,1000,50.0,2.0,0,0,5.0,0,1,1,0,0,0,0,0,0,1,6.0,0,1,1,0
2024-12-11,2024-12-11,https://www.otodom.pl/pl/oferta/fantastyczna-lokalizacja-przy-ul-zlotej-ID4ssoZ,8.0,,agency,"ul. Złota, Śródmieście Północne, Śródmieście, Warszawa, mazowieckie",52.23236,21.01139,0,1,block_of_flats,0,Srodmiescie,4000,1000,55.0,3.0,0,0,9.0,0,0,0,0,0,0,0,0,0,0,60.0,0,0,0,0
2024-12-11,2024-12-11,https://www.otodom.pl/pl/oferta/idealne-3-pokojowe-mieszkanie-dla-rodziny-ID4tDsX,2.0,,agency,"ul. Małej Łąki, Natolin, Ursynów, Warszawa, mazowieckie",52.13644,21.05299,0,0,other,0,Ursynow,3000,1200,64.0,3.0,0,0,3.0,0,1,0,0,0,0,0,0,0,0,,0,0,1,0
2024-12-11,2024-12-11,https://www.otodom.pl/pl/oferta/kawalerka-w-centrum-ID41jw0,5.0,district,owner,"Śródmieście Północne, Śródmieście, Warszawa, mazowieckie",52.23313,21.019,1,1,block_of_flats,0,Srodmiescie,2650,520,37.0,1.0,0,0,8.0,0,1,0,0,0,1,0,0,1,0,69.0,0,0,0,0
2024-12-11,2024-12-16,https://www.otodom.pl/pl/oferta/malutka-kawalerka-w-swietnej-lokalizacji-ID4tSIr,4.0,district,agency,"ul. Sandomierska, Stary Mokotów, Mokotów, Warszawa, mazowieckie",52.2079,21.0186,0,0,tenement,0,Mokotow,1600,375,12.0,1.0,0,0,4.0,0,0,0,0,0,0,0,0,0,0,65.0,0,0,0,0
2024-12-11,2024-12-18,https://www.otodom.pl/pl/oferta/mieszkanie-120-m-warszawa-ID4tS3J,4.0,,agency,"ul. Opoczyńska, Stary Mokotów, Mokotów, Warszawa, mazowieckie",52.206581,21.006106,0,1,tenement,0,Mokotow,6400,0,120.0,4.0,0,0,4.0,0,0,0,0,0,0,0,0,0,1,89.0,1,1,0,0
2024-12-11,2024-12-12,https://www.otodom.pl/pl/oferta/mieszkanie-151-m-warszawa-ID4tSGo,3.0,,agency,"ul. Podchorążych, Sielce, Mokotów, Warszawa, mazowieckie",52.209428,21.03626,0,1,apartment,0,Mokotow,7700,0,151.0,5.0,0,0,4.0,0,0,0,0,1,1,0,0,0,0,20.0,0,0,0,0
2024-12-11,2024-12-11,https://www.otodom.pl/pl/oferta/mieszkanie-do-wynajecia-w-sercu-warszawy-ID4tgJy,1.0,,agency,"ul. Elektryczna, Powiśle, Śródmieście, Warszawa, mazowieckie",52.23976,21.03018,0,0,other,0,Srodmiescie,6000,0,50.0,2.0,0,0,6.0,0,0,0,0,0,0,0,0,0,0,4.0,0,0,0,0
2024-12-11,2024-12-20,https://www.otodom.pl/pl/oferta/mieszkanie-z-tarasem-i-garazem-ID4tSey,8.0,district,agency,"ul. Egejska, Stegny, Mokotów, Warszawa, mazowieckie",52.180123,21.056137,0,1,apartment,1,Mokotow,3160,840,57.0,2.0,0,0,8.0,0,0,0,0,1,0,0,0,0,1,17.0,0,0,0,0
2024-12-11,2024-12-11,https://www.otodom.pl/pl/oferta/narozne-mieszkanie-z-panoramicznymwidokiem-ID4lCdP,10.0,,agency,"ul. Grzybowska, Mirów, Wola, Warszawa, mazowieckie",52.23369,20.989588,0,1,apartment,0,Wola,9900,0,54.0,2.0,0,0,28.0,0,0,0,0,1,0,0,0,0,1,3.0,0,0,0,0
2024-12-11,2024-12-21,https://www.otodom.pl/pl/oferta/nowe-metro-klima-komorka-park-3-312-zl-z-mediami-ID4tRVf,,,owner,"Grochów, Praga-Południe, Warszawa, mazowieckie",52.24168,21.08406,1,0,other,0,Praga_Poludnie,2900,0,35.0,1.0,0,0,,0,0,0,0,0,0,0,0,0,0,,0,0,0,0
2024-12-11,2024-12-14,https://www.otodom.pl/pl/oferta/nowe-mieszkanie-do-wynajecia-ul-jana-kazimierza-ID4tS4o,6.0,district,agency,"ul. Jana Kazimierza, Odolany, Wola, Warszawa, mazowieckie",52.22187,20.93719,0,1,block_of_flats,0,Wola,3800,800,44.0,2.0,0,0,10.0,0,1,0,0,0,0,0,0,1,1,1.0,1,1,1,0
2024-12-11,2024-12-11,https://www.otodom.pl/pl/oferta/nowoczesne-3-pokojowe-mieszkanie-stare-wlochy-ID4thbi,1.0,,agency,"ul. Solipska, Stare Włochy, Włochy, Warszawa, mazowieckie",52.20129,20.90926,0,1,apartment,1,Wlochy,4800,1030,65.03,3.0,0,0,2.0,0,1,0,0,1,0,1,1,1,1,1.0,0,1,1,1
2024-12-11,2024-12-11,https://www.otodom.pl/pl/oferta/nowoczesne-38-m2-z-garazem-ul-cybernetyki-ID4tGZj,4.0,district,agency,"ul. Cybernetyki, Służewiec, Mokotów, Warszawa, mazowieckie",52.176451,20.993539,0,1,apartment,1,Mokotow,3400,500,38.0,2.0,0,0,7.0,0,1,0,0,1,0,0,0,1,1,5.0,1,1,1,0
2024-12-11,2024-12-11,https://www.otodom.pl/pl/oferta/ochota-przytulne-ul-grojecka-ul-pawinskiego-ID4cWgV,1.0,district,owner,"Śródmieście Północne, Śródmieście, Warszawa, mazowieckie",52.23614,21.00817,1,0,block_of_flats,0,Srodmiescie,2550,400,29.0,1.0,0,0,4.0,0,0,0,0,0,0,0,1,0,0,49.0,0,0,0,0
2024-12-11,2024-12-16,https://www.otodom.pl/pl/oferta/park-szczesliwicki-stylowe-dostepne-od-zaraz-ID4tSeb,4.0,district,agency,"ul. Lirowa, Szczęśliwice, Ochota, Warszawa, mazowieckie",52.20125,20.96296,0,1,apartment,1,Ochota,3700,650,50.0,2.0,0,0,4.0,0,1,0,0,0,0,0,0,1,1,6.0,1,1,1,0
2024-12-11,2024-12-12,https://www.otodom.pl/pl/oferta/przestronna-kawalerka-od-zaraz-wola-kolo-ID4tSIu,3.0,district,agency,"ul. Ożarowska, Koło, Wola, Warszawa, mazowieckie",52.246113,20.954534,0,0,block_of_flats,0,Wola,1600,240,20.0,1.0,0,0,3.0,0,0,0,0,0,0,0,0,0,0,75.0,0,0,0,0
2024-12-11,2024-12-19,https://www.otodom.pl/pl/oferta/przestronne-i-jasne-4-pokojowe-ID4tSgk,5.0,,agency,"ul. Jana III Sobieskiego, Stegny, Mokotów, Warszawa, mazowieckie",52.170872,21.06568,0,1,block_of_flats,0,Mokotow,10500,0,143.6,4.0,0,0,12.0,0,1,0,1,0,0,0,0,1,1,25.0,1,1,0,1
2024-12-11,2024-12-11,https://www.otodom.pl/pl/oferta/przytulne-2-pokojowe-mieszkanie-metro-kabaty-ID4tfqI,4.0,,agency,"al. Aleja Komisji Edukacji Narodowej, Kabaty, Ursynów, Warszawa, mazowieckie",52.135,21.06316,0,0,other,0,Ursynow,3100,700,42.0,2.0,0,0,6.0,0,1,0,0,0,1,0,0,0,0,21.0,0,0,0,0
2024-12-11,2024-12-11,https://www.otodom.pl/pl/oferta/przytulne-mieszkanie-na-woli-od-zaraz-ID4tSz3,4.0,,agency,"ul. Łucka, Mirów, Wola, Warszawa, mazowieckie",52.23178,20.98474,0,0,other,0,Wola,3200,0,55.0,2.0,0,0,4.0,0,1,0,0,0,0,0,0,0,0,16.0,0,0,0,0
2024-12-11,2024-12-11,https://www.otodom.pl/pl/oferta/raclawicka-50m-2-oddzielne-pokoje-po-remoncie-ID4tS3l,2.0,district,agency,"ul. Racławicka, Wierzbno, Mokotów, Warszawa, mazowieckie",52.196201,21.004527,0,0,tenement,1,Mokotow,3200,1040,53.0,2.0,1,0,4.0,0,0,0,0,0,0,0,0,0,0,75.0,1,1,0,0
2024-12-11,2024-12-16,https://www.otodom.pl/pl/oferta/rakow-83-m-wysoki-standard-klima-ogrod-ID4tSAG,1.0,district,agency,"ul. Równoległa, Raków, Włochy, Warszawa, mazowieckie",52.197531,20.939786,0,1,apartment,0,Wlochy,8000,890,83.0,4.0,0,0,5.0,0,1,1,1,1,1,1,1,0,1,5.0,0,1,1,1
2024-12-11,2024-12-11,https://www.otodom.pl/pl/oferta/rezerwacja-5-pokoi-przy-parku-lazienkowskim-ID4tG8B,3.0,district,agency,"ul. Podchorążych 75/77, Sielce, Mokotów, Warszawa, mazowieckie",52.2091,21.036136,0,1,apartment,0,Mokotow,7700,2800,152.0,5.0,0,1,4.0,0,1,1,0,1,1,1,0,1,1,25.0,1,1,1,0
2024-12-11,2024-12-16,https://www.otodom.pl/pl/oferta/saska-kepa-nowy-apartament-lizbonska-1-ID4tS1h,2.0,district,owner,"ul. Lizbońska, Saska Kępa, Praga-Południe, Warszawa, mazowieckie",52.228024,21.066219,0,1,apartment,1,Praga_Poludnie,3700,650,40.0,2.0,0,0,,0,0,1,0,1,0,0,0,0,1,1.0,1,1,1,0
2024-12-11,2024-12-28,https://www.otodom.pl/pl/oferta/sprawdz-jasne-2p-na-zielonym-zoliborzu-ID4u2FW,6.0,district,agency,"ul. Zygmunta Krasińskiego, Sady Żoliborskie, Żoliborz, Warszawa, mazowieckie",52.262617,20.968408,0,1,block_of_flats,0,Zoliborz,2000,586,40.0,2.0,0,0,8.0,0,1,0,0,0,0,1,1,0,0,61.0,0,0,0,0
2024-12-11,2024-12-20,https://www.otodom.pl/pl/oferta/sprawdzprzytulne-2-pokoje-na-bialolece-ID4tSBX,2.0,district,agency,"Mariana Wyrzykowskiego, Nowodwory, Białołęka, Warszawa, mazowieckie",52.336587,20.952298,0,1,block_of_flats,0,Bialoleka,2250,601,34.5,2.0,0,0,4.0,0,1,0,0,1,0,0,0,0,1,10.0,0,0,0,0
2024-12-11,2024-12-21,https://www.otodom.pl/pl/oferta/srodmiescie-ul-siedmiogrodzka-1a-z-garazem-ID4tRUE,3.0,district,agency,"ul. Siedmiogrodzka, Czyste, Wola, Warszawa, mazowieckie",52.231759,20.973551,0,1,apartment,1,Wola,3000,700,45.0,2.0,0,0,6.0,0,1,1,0,1,0,0,0,1,1,,1,1,0,0
2024-12-11,2024-12-11,https://www.otodom.pl/pl/oferta/studio-with-stunning-view-grzybowska-browary-ID4tDGT,10.0,,owner,"ul. Grzybowska 49, Mirów, Wola, Warszawa, mazowieckie",52.234665,20.989488,0,0,apartment,1,Wola,4415,850,31.5,1.0,0,0,16.0,0,0,0,0,1,0,0,0,1,1,3.0,0,1,1,1
2024-12-11,2024-12-11,https://www.otodom.pl/pl/oferta/targowek-nowe-mieszkanie-57m-3-pokoje-metro-ID4tRMZ,4.0,district,owner,"ul. Rembrandta, Targówek Mieszkaniowy, Targówek, Warszawa, mazowieckie",52.280378,21.049779,0,1,block_of_flats,1,Targowek,3400,1100,57.0,3.0,1,1,5.0,0,1,0,0,1,0,0,0,1,0,5.0,0,0,1,0
2024-12-11,2024-12-11,https://www.otodom.pl/pl/oferta/unikalny-apartament-w-przepieknej-kamienicy-ID4r2fD,1.0,,agency,"Śródmieście Południowe, Śródmieście, Warszawa, mazowieckie",52.2265,21.02608,1,0,other,0,Srodmiescie,15000,0,100.0,3.0,0,0,6.0,0,0,0,0,0,0,0,0,0,0,103.0,0,0,0,0
2024-12-11,2024-12-11,https://www.otodom.pl/pl/oferta/ursynow-2-pokoje-43-m2-klimatyzacja-las-kabacki-ID4tBuj,2.0,district,agency,"ul. Stryjeńskich, Natolin, Ursynów, Warszawa, mazowieckie",52.136586,21.050255,0,1,apartment,0,Ursynow,2500,1000,43.0,2.0,1,1,5.0,0,1,0,0,1,0,0,0,1,1,24.0,0,0,0,0
2024-12-11,2024-12-11,https://www.otodom.pl/pl/oferta/wygodny-apartament-miasteczko-wilanow-ID4sL0d,3.0,district,agency,"ul. Sarmacka, Błonia Wilanowskie, Wilanów, Warszawa, mazowieckie",52.161607,21.078524,0,1,apartment,0,Wilanow,3300,1000,54.08,2.0,0,1,4.0,0,1,0,0,1,0,0,0,1,1,15.0,1,1,1,0
2024-12-11,2024-12-16,https://www.otodom.pl/pl/oferta/wynajem-apartament-wysoki-standard-3-p-bemowo-ID4tSuY,4.0,district,agency,"ul. Górczewska 224, Górce, Bemowo, Warszawa, mazowieckie",52.2396,20.9012,0,1,apartment,0,Bemowo,4800,1200,71.0,3.0,0,0,4.0,0,1,0,0,0,0,0,0,1,0,13.0,0,1,0,1
2024-12-11,2024-12-17,https://www.otodom.pl/pl/oferta/wynajme-4-pokoje65m2-metro-stoklosy-ID4tSkv,4.0,,agency,"ul. Edwarda Dembowskiego, Ursynów Północny, Ursynów, Warszawa, mazowieckie",52.15293,21.03154,0,0,other,0,Ursynow,4000,0,65.0,4.0,0,0,4.0,0,1,0,0,1,0,0,0,0,0,,0,0,0,0
2024-12-11,2024-12-21,https://www.otodom.pl/pl/oferta/wynajme-dwupokojowe-mieszkanie-na-aluzyjnej-ID4tSC1,5.0,,owner,"ul. Aluzyjna, Nowodwory, Białołęka, Warszawa, mazowieckie",52.347132,20.942228,0,0,other,0,Bialoleka,2700,600,44.0,2.0,1,0,,0,1,0,0,1,0,0,0,1,1,,0,0,1,0
2024-12-11,2024-12-18,https://www.otodom.pl/pl/oferta/wynajme-mieszkanie-warszawa-praga-poludnie-ID4tRWK,,,owner,"ul. Lubomira, Grochów, Praga-Południe, Warszawa, mazowieckie",52.244793,21.076567,0,0,block_of_flats,1,Praga_Poludnie,3200,800,64.0,2.0,0,0,,0,0,0,1,1,1,0,0,0,0,,0,1,1,1
2024-12-12,2024-12-12,https://www.otodom.pl/pl/oferta/2-pok-z-balkonem-i-parkingiem-tolkiena-ID4tDRO,6.0,district,agency,"Tolkiena 1, Służewiec, Mokotów, Warszawa, mazowieckie",52.187155,20.98982,0,1,apartment,0,Mokotow,3500,800,54.0,2.0,0,0,8.0,0,1,0,0,1,1,0,0,1,1,10.0,0,0,1,0
2024-12-12,2024-12-12,https://www.otodom.pl/pl/oferta/2-pokoje-balon-garderoba-parking-ID4mwWl,1.0,district,owner,"ul. Romana Maciejewskiego 1, Tarchomin, Białołęka, Warszawa, mazowieckie",52.315718,20.944863,0,1,apartment,0,Bialoleka,2700,715,35.0,2.0,0,1,6.0,0,1,1,0,1,0,0,0,0,0,16.0,1,1,0,0
2024-12-12,2024-12-12,https://www.otodom.pl/pl/oferta/2-pokoje-dog-friendly-ul-radziwie-ID4sgC1,4.0,district,agency,"ul. Radziwie, Młynów, Wola, Warszawa, mazowieckie",52.245746,20.960543,0,1,apartment,0,Wola,3600,760,55.0,2.0,0,0,15.0,0,1,0,0,0,0,0,0,0,1,16.0,0,0,1,1
2024-12-12,2024-12-12,https://www.otodom.pl/pl/oferta/2-pokoje-ringelbluma-3-cichy-parter-w-kamienicy-ID4tTnj,1.0,district,owner,"ul. Emanuela Ringelbluma 3, Koło, Wola, Warszawa, mazowieckie",52.244749,20.948977,0,0,tenement,0,Wola,2700,769,42.0,2.0,0,0,3.0,0,0,0,0,0,1,0,1,0,0,,0,0,0,0
2024-12-12,2024-12-20,https://www.otodom.pl/pl/oferta/2-pokoje-w-samym-centrum-miasta-ID4tT2I,3.0,district,agency,"ul. Sienna, Mirów, Wola, Warszawa, mazowieckie",52.2308,20.99689,0,1,apartment,1,Wola,3500,760,33.0,2.0,0,0,10.0,0,1,0,0,0,0,0,0,0,1,5.0,0,0,1,0
2024-12-12,2024-12-12,https://www.otodom.pl/pl/oferta/2-pokoje-z-ogrodkiem-i-parkingiem-marina-mokotow-ID4pTBO,1.0,district,owner,"Marina Mokotów I, ul. Wyględowska, Wyględów, Mokotów, Warszawa, mazowieckie",52.195953,20.984963,0,1,block_of_flats,0,Mokotow,3600,0,46.0,2.0,1,0,5.0,0,0,1,1,1,0,0,0,1,1,18.0,0,0,1,0
2024-12-12,2024-12-19,https://www.otodom.pl/pl/oferta/3-pokojowe-mieszkanie-bliska-wola-ID4tTvo,1.0,district,agency,"ul. Marcina Kasprzaka, Czyste, Wola, Warszawa, mazowieckie",52.22797,20.95886,0,1,apartment,1,Wola,5450,550,43.0,3.0,0,0,1.0,0,0,1,1,1,0,0,0,1,0,2.0,0,1,1,0
2024-12-12,2024-12-18,https://www.otodom.pl/pl/oferta/3-pokojowe-mieszkanie-w-centrum-po-remoncie-ID4tTb4,1.0,district,owner,"ul. Dobra, Powiśle, Śródmieście, Warszawa, mazowieckie",52.241539,21.025029,0,1,block_of_flats,1,Srodmiescie,4900,600,58.0,3.0,0,1,10.0,0,1,0,0,0,0,0,0,1,1,,1,1,0,0
2024-12-12,2024-12-12,https://www.otodom.pl/pl/oferta/39m2-2-pokojowe-wynajem-od-teraz-ID4oGmw,1.0,,owner,"ul. Pokorna, Muranów, Śródmieście, Warszawa, mazowieckie",52.25511,20.993929,0,1,apartment,1,Srodmiescie,3400,670,39.0,2.0,1,1,,0,1,1,0,1,1,0,1,0,1,,0,0,1,0
2024-12-12,2024-12-12,https://www.otodom.pl/pl/oferta/3pokoje-wynajem-miejsce-postojowe-jana-kazimierza-ID4p76i,,district,owner,"ul. Jana Kazimierza, Odolany, Wola, Warszawa, mazowieckie",52.223331,20.945651,0,1,block_of_flats,0,Wola,5500,500,56.0,3.0,1,0,,0,0,0,1,1,0,0,0,0,0,9.0,0,0,1,0
2024-12-12,2024-12-12,https://www.otodom.pl/pl/oferta/4-pokoje-113m2-marina-mokotow-balkon-garaz-ID4tpJk,4.0,district,agency,"Wyględów, Mokotów, Warszawa, mazowieckie",52.195011,20.985294,1,1,block_of_flats,1,Mokotow,5000,2200,113.0,4.0,0,0,6.0,0,1,0,0,1,1,0,0,1,1,19.0,0,1,1,0
2024-12-12,2024-12-12,https://www.otodom.pl/pl/oferta/apartament-48-m-mokotow-wlasciciel-ID4ckeo,7.0,,owner,"ul. Racjonalizacji, Służewiec, Mokotów, Warszawa, mazowieckie",52.18717,20.992828,0,1,block_of_flats,1,Mokotow,4100,1,48.0,2.0,0,0,,0,1,0,0,1,0,0,0,1,1,5.0,0,0,1,0
2024-12-12,2024-12-12,https://www.otodom.pl/pl/oferta/apartament-w-wilanowie-dostepny-od-zaraz-ID4tT7s,3.0,district,agency,"ul. Adama Branickiego, Błonia Wilanowskie, Wilanów, Warszawa, mazowieckie",52.15705,21.08028,0,1,apartment,0,Wilanow,5850,0,64.0,2.0,0,0,4.0,0,1,0,0,1,0,0,0,0,1,15.0,1,1,1,1
2024-12-12,2024-12-12,https://www.otodom.pl/pl/oferta/bez-prowizji-na-granicy-ochoty-i-mokotowa-klima-ID4tAJs,4.0,district,owner,"Okęcie, Włochy, Warszawa, mazowieckie",52.191871,20.975528,0,1,apartment,1,Wlochy,4800,1860,90.0,3.0,0,1,5.0,0,1,1,0,1,0,0,0,1,1,15.0,0,1,1,1
2024-12-12,2024-12-17,https://www.otodom.pl/pl/oferta/bezposrednio-przestronny-2-pokojowy-apartament-ID4tTeN,2.0,district,owner,"ul. Ostrobramska 76, Gocławek, Praga-Południe, Warszawa, mazowieckie",52.234188,21.110977,0,1,other,0,Praga_Poludnie,3500,800,51.0,2.0,1,1,7.0,0,1,0,0,1,0,0,0,0,0,1.0,0,0,1,0
2024-12-12,2024-12-12,https://www.otodom.pl/pl/oferta/centrum-2pokoje-ID4sVHe,1.0,,agency,"ul. Boczna, Powiśle, Śródmieście, Warszawa, mazowieckie",52.246117,21.01611,0,0,tenement,0,Srodmiescie,2900,600,44.0,2.0,0,0,2.0,0,0,0,0,0,0,0,1,0,0,76.0,0,0,0,0
2024-12-12,2024-12-12,https://www.otodom.pl/pl/oferta/ciche-2-pokoje-garaz-balkon-osiedle-zamkniete-ID4tiFB,2.0,district,agency,"ul. Drawska, Szczęśliwice, Ochota, Warszawa, mazowieckie",52.203905,20.95134,0,1,apartment,0,Ochota,2550,0,40.0,2.0,0,0,3.0,0,1,0,0,1,0,0,0,0,1,21.0,0,0,0,0
2024-12-12,2024-12-12,https://www.otodom.pl/pl/oferta/ciche-3-pokoje-w-kamienicy-przy-politechnice-ID4ryfx,5.0,district,agency,"ul. Stanisława Noakowskiego, Śródmieście Południowe, Śródmieście, Warszawa, mazowieckie",52.222647,21.012238,0,1,tenement,0,Srodmiescie,7000,0,96.73,3.0,0,1,6.0,0,1,0,0,0,1,0,0,1,1,113.0,1,1,1,0
2024-12-12,2024-12-12,https://www.otodom.pl/pl/oferta/ciche-3-pokojowe-kasprzaka-ordona-ID4tTm8,1.0,district,agency,"ul. Marcina Kasprzaka, Odolany, Wola, Warszawa, mazowieckie",52.22565,20.95423,0,1,block_of_flats,1,Wola,3900,0,56.26,3.0,0,0,8.0,0,0,0,0,0,0,0,0,0,0,,0,0,0,0
2024-12-12,2024-12-12,https://www.otodom.pl/pl/oferta/cichy-elegancki-apartament-w-triton-park-ID38D5q,4.0,district,owner,"ul. Grójecka 194, Szczęśliwice, Ochota, Warszawa, mazowieckie",52.200307,20.966281,0,1,apartment,1,Ochota,4000,850,56.4,2.0,0,1,12.0,0,1,0,0,1,0,1,0,1,1,13.0,1,0,1,1
2024-12-12,2024-12-12,https://www.otodom.pl/pl/oferta/do-wynajecia-mieszkanie-2-pokojowe-ID4rYGU,3.0,district,owner,"ul. Adama Branickiego, Błonia Wilanowskie, Wilanów, Warszawa, mazowieckie",52.157212,21.078594,0,1,block_of_flats,1,Wilanow,4000,1100,52.0,2.0,0,0,4.0,0,1,0,0,1,0,0,0,1,1,,1,1,1,0
2024-12-12,2024-12-12,https://www.otodom.pl/pl/oferta/doskonale-zlokalizowane-mieszkanie-ID4r3U3,5.0,district,agency,"Szmulowizna, Praga-Północ, Warszawa, mazowieckie",52.256001,21.053101,0,1,block_of_flats,1,Praga_Polnoc,2900,1342,61.1,3.0,0,0,10.0,0,1,0,0,0,0,0,0,0,0,55.0,0,0,0,0
2024-12-12,2024-12-18,https://www.otodom.pl/pl/oferta/dwupokojowe-mieszkanie-na-wilanowe-ID4tTos,1.0,district,agency,"ul. Bruzdowa, Zawady, Wilanów, Warszawa, mazowieckie",52.17231,21.11303,0,1,block_of_flats,0,Wilanow,4000,750,44.0,2.0,0,0,3.0,0,0,0,1,0,0,0,0,1,1,10.0,0,1,1,0
2024-12-12,2024-12-12,https://www.otodom.pl/pl/oferta/dwupokojowe-mieszkanie-przy-samym-metrze-wierzbno-ID4rxaJ,1.0,district,owner,"ul. Jana Pawła Woronicza 24, Wierzbno, Mokotów, Warszawa, mazowieckie",52.189553,21.018207,0,1,apartment,0,Mokotow,4000,1500,62.0,2.0,0,0,4.0,0,1,0,0,1,0,0,0,0,1,5.0,0,0,1,0
2024-12-12,2024-12-12,https://www.otodom.pl/pl/oferta/dwupokojowe-na-bemowie-50-m2-kom-lokatorska-ID4tTsr,2.0,boiler room,owner,"ul. Kazimierza Deyny, Górce, Bemowo, Warszawa, mazowieckie",52.241586,20.900911,0,0,block_of_flats,1,Bemowo,2500,920,50.0,2.0,0,0,3.0,0,1,0,0,0,0,1,0,1,1,19.0,1,1,1,0
2024-12-12,2024-12-12,https://www.otodom.pl/pl/oferta/eleganckie-3-pokoje-miejsce-park-i-komorka-lok-ID4tHyi,4.0,district,agency,"ul. Marcina Kasprzaka, Czyste, Wola, Warszawa, mazowieckie",52.227944,20.958622,0,1,block_of_flats,1,Wola,4800,431,54.0,3.0,1,0,8.0,0,1,0,0,1,0,0,1,1,1,7.0,1,1,1,0
2024-12-12,2024-12-17,https://www.otodom.pl/pl/oferta/hit-doskonale-duze-3pok-na-bukowinskiej-10-metro-ID4tT87,2.0,district,agency,"Ksawerów, Mokotów, Warszawa, mazowieckie",52.183409,21.022622,1,1,apartment,0,Mokotow,4600,1030,70.0,3.0,0,0,4.0,0,0,0,0,1,1,0,0,0,1,18.0,0,0,1,0
2024-12-12,2024-12-12,https://www.otodom.pl/pl/oferta/idealna-lokalizacja-w-centrum-umeblowane-ID2YBEM,,,owner,"ul. Żelazna 59A, Mirów, Wola, Warszawa, mazowieckie",52.233936,20.99093,0,1,apartment,0,Wola,5000,0,61.0,2.0,0,1,,0,1,0,0,1,0,0,0,1,1,18.0,1,1,1,0
2024-12-12,2024-12-12,https://www.otodom.pl/pl/oferta/jak-nowe-2pok-widna-kuchnia50m2przyjanakazimierz-ID4tSXS,6.0,boiler room,owner,"ul. Goleszowska, Odolany, Wola, Warszawa, mazowieckie",52.225058,20.940086,0,1,apartment,1,Wola,4100,900,50.0,2.0,0,1,12.0,0,1,0,0,1,1,0,1,1,1,4.0,1,1,1,0
2024-12-12,2024-12-12,https://www.otodom.pl/pl/oferta/jasne-2-pokoje-na-wynajem-42-m2-ul-powazkowska-ID4ssXl,2.0,,agency,"ul. Powązkowska, Sady Żoliborskie, Żoliborz, Warszawa, mazowieckie",52.25804,20.96688,0,0,other,0,Zoliborz,4800,500,42.0,2.0,0,0,6.0,0,0,0,0,1,0,1,0,0,0,3.0,0,0,1,0
2024-12-12,2024-12-19,https://www.otodom.pl/pl/oferta/jasny-apartament-42-m2-ul-pieskowa-skala-3-ID4tTi4,3.0,district,agency,"Wierzbno, Mokotów, Warszawa, mazowieckie",52.19832,21.01715,1,1,apartment,0,Mokotow,3000,700,42.0,2.0,0,0,,0,1,0,0,1,0,0,0,0,1,,0,0,1,0
2024-12-12,2024-12-12,https://www.otodom.pl/pl/oferta/kawalerka-z-balkonem-ochota-ul-raclawicka-150-ID4jeiW,6.0,district,owner,"ul. Racławicka, Wyględów, Mokotów, Warszawa, mazowieckie",52.196538,20.994658,0,1,block_of_flats,0,Mokotow,2500,650,27.67,1.0,0,0,10.0,0,1,0,0,0,1,0,0,0,0,53.0,0,0,0,0
2024-12-12,2024-12-19,https://www.otodom.pl/pl/oferta/klimatyczne-i-jasne-z-balkonem-i-garderoba-garaz-ID4tTqn,3.0,district,agency,"ul. Skarbka z Gór, Grodzisk, Białołęka, Warszawa, mazowieckie",52.322284,21.057064,0,1,block_of_flats,0,Bialoleka,3000,900,61.81,2.0,0,0,3.0,0,1,0,0,1,0,0,0,0,1,17.0,0,0,1,0
2024-12-12,2024-12-17,https://www.otodom.pl/pl/oferta/komfortowe-dwa-pokoje-na-osiedlu-bemosphere-garaz-ID4tTjH,3.0,district,agency,"ul. Żeńców, Chrzanów, Bemowo, Warszawa, mazowieckie",52.226342,20.893697,0,1,block_of_flats,1,Bemowo,3250,650,44.1,2.0,0,1,6.0,0,1,0,0,1,0,0,0,1,1,1.0,1,1,1,0
2024-12-12,2024-12-14,https://www.otodom.pl/pl/oferta/komfortowe-mieszkanie-blisko-metra-ID4tT5v,5.0,district,agency,"ul. Dantego Alighieri, Wawrzyszew, Bielany, Warszawa, mazowieckie",52.28628,20.93587,0,1,block_of_flats,0,Bielany,3400,0,41.5,2.0,0,0,10.0,0,1,0,0,0,0,0,0,0,0,46.0,0,0,0,0
2024-12-12,2024-12-12,https://www.otodom.pl/pl/oferta/luksusowe-mieszkanie-dwupokojowe-na-wynajem-ID4cTGy,1.0,district,owner,"ul. Dobra 32, Powiśle, Śródmieście, Warszawa, mazowieckie",52.23932,21.027847,0,1,apartment,0,Srodmiescie,6500,700,45.0,2.0,1,0,6.0,0,1,0,0,1,0,0,1,1,1,5.0,1,1,1,1
2024-12-12,2024-12-17,https://www.otodom.pl/pl/oferta/luksusowe-mieszkanie-w-forcie-cze-ID4tSW9,2.0,,agency,"ul. Fort Piłsudskiego, Stegny, Mokotów, Warszawa, mazowieckie",52.18769,21.03802,0,1,apartment,1,Mokotow,14500,0,83.0,3.0,0,0,2.0,0,1,1,0,1,0,0,0,1,1,,0,1,1,1
2024-12-12,2024-12-12,https://www.otodom.pl/pl/oferta/luksusowe-mieszkanie-w-porcie-praskim-ID4stkD,2.0,district,agency,"ul. Józefa Sierakowskiego, Stara Praga, Praga-Północ, Warszawa, mazowieckie",52.250725,21.034436,0,1,apartment,1,Praga_Polnoc,7150,0,61.9,3.0,0,1,6.0,0,0,0,0,1,0,0,0,1,1,7.0,1,1,1,0
2024-12-12,2024-12-12,https://www.otodom.pl/pl/oferta/luksusowy-apartament-z-1-sypialnia-w-unique-tower-ID4tqa7,10.0,district,agency,"ul. Grzybowska, Mirów, Wola, Warszawa, mazowieckie",52.234981,20.992265,0,1,block_of_flats,1,Wola,13000,0,70.0,2.0,0,0,30.0,0,0,0,0,1,0,0,1,1,1,3.0,1,1,0,1
2024-12-12,2024-12-12,https://www.otodom.pl/pl/oferta/metro-wawrzyszew-mieszkaie-2-pokojowe-47m2-ID4tSRJ,6.0,district,owner,"ul. Marymoncka 125, Wawrzyszew, Bielany, Warszawa, mazowieckie",52.28333,20.93333,0,1,block_of_flats,1,Bielany,2800,1000,47.0,2.0,0,1,10.0,0,1,0,0,0,1,0,0,0,0,,1,1,0,0
2024-12-12,2024-12-12,https://www.otodom.pl/pl/oferta/metro-wilanowska-11-pietro-klimatyzacja-ID4tzNc,10.0,district,owner,"Pohoskeigo 1, Ksawerów, Mokotów, Warszawa, mazowieckie",52.17854,21.028986,0,1,block_of_flats,0,Mokotow,3860,460,34.0,2.0,1,0,11.0,0,1,1,0,0,0,0,0,0,0,2.0,0,1,1,1
2024-12-12,2024-12-12,https://www.otodom.pl/pl/oferta/metro-wilanowska-ciche-studio-basen-fitness-ID4tGyS,9.0,district,agency,"ul. Bukowińska, Ksawerów, Mokotów, Warszawa, mazowieckie",52.179693,21.0277,0,1,other,0,Mokotow,2299,600,34.0,1.0,0,0,15.0,0,1,0,0,1,1,0,0,0,0,19.0,1,1,0,0
2024-12-12,2024-12-12,https://www.otodom.pl/pl/oferta/mieszkania-2-pok-34-m2-ul-bonifraterska-ID4ovpa,1.0,district,owner,"Śródmieście Północne, Śródmieście, Warszawa, mazowieckie",52.23628,21.0051,1,0,tenement,0,Srodmiescie,3600,1,34.0,2.0,0,0,,0,0,0,0,0,0,0,0,0,0,65.0,0,0,1,0
2024-12-12,2024-12-12,https://www.otodom.pl/pl/oferta/mieszkanie-85-m-warszawa-ID4tpyW,5.0,district,agency,"ul. Wąwozowa, Kabaty, Ursynów, Warszawa, mazowieckie",52.131285,21.065923,0,1,apartment,1,Ursynow,4100,1700,85.0,3.0,0,0,5.0,0,1,0,0,1,0,0,1,1,1,2.0,1,1,0,0
2024-12-12,2024-12-12,https://www.otodom.pl/pl/oferta/mieszkanie-kawalerka-warszawa-ul-woronicza-ID45fiF,2.0,,owner,"ul. Jana Pawła Woronicza, Ksawerów, Mokotów, Warszawa, mazowieckie",52.188984,21.006446,0,0,block_of_flats,0,Mokotow,2100,462,25.0,1.0,0,1,4.0,0,0,0,0,0,0,0,1,0,0,,0,0,0,0
2024-12-12,2024-12-12,https://www.otodom.pl/pl/oferta/mieszkanie-wysoki-standard-pole-mokotowskie-sgh-ID4n4kh,1.0,district,owner,"ul. Giordana Bruna, Stary Mokotów, Mokotów, Warszawa, mazowieckie",52.209765,21.006323,0,1,block_of_flats,1,Mokotow,4000,700,43.0,2.0,1,1,10.0,0,0,0,0,0,0,0,0,0,1,61.0,1,0,1,0
2024-12-12,2024-12-12,https://www.otodom.pl/pl/oferta/mieszkanie-z-2-oddzielnymi-pokojami-garaz-klima-ID4lsY8,1.0,district,owner,"ul. Alternatywy, Stary Imielin, Ursynów, Warszawa, mazowieckie",52.142884,21.035666,0,1,block_of_flats,1,Ursynow,3800,800,52.0,2.0,0,1,6.0,0,1,1,0,1,1,1,1,1,1,18.0,1,1,1,1
2024-12-12,2024-12-12,https://www.otodom.pl/pl/oferta/mokotow-2-pokoje-4-pietro-bezposrednio-ID4fY7f,5.0,,owner,"ul. Wołoska, Wierzbno, Mokotów, Warszawa, mazowieckie",52.193307,21.002205,0,0,apartment,1,Mokotow,4400,0,40.0,2.0,0,0,6.0,0,1,0,0,0,0,0,0,0,1,5.0,0,0,1,0
2024-12-12,2024-12-12,https://www.otodom.pl/pl/oferta/niedzwiadek-3-pokoje-3-pietro-piwnica-ID4texq,3.0,district,agency,"ul. Stanisława Wojciechowskiego, Niedźwiadek, Ursus, Warszawa, mazowieckie",52.195872,20.871916,0,0,block_of_flats,0,Ursus,2900,0,46.3,3.0,0,0,4.0,0,1,0,0,0,0,0,1,0,0,49.0,1,1,0,0
2024-12-12,2024-12-18,https://www.otodom.pl/pl/oferta/nowe-2-pokojowe-mieszkanie-na-wynajem-wlochy-ID4tSYJ,3.0,district,owner,"Wschodu Słońca, Raków, Włochy, Warszawa, mazowieckie",52.201273,20.940589,0,1,block_of_flats,1,Wlochy,3300,640,38.0,2.0,0,1,6.0,0,1,1,0,0,0,0,0,1,1,1.0,1,1,1,0
2024-12-12,2024-12-14,https://www.otodom.pl/pl/oferta/od-stycznia-2pok-40m2-klima-garaz-ul-rownolegla-ID4tSYH,1.0,,owner,"ul. Równoległa, Raków, Włochy, Warszawa, mazowieckie",52.200951,20.946138,0,1,block_of_flats,1,Wlochy,3000,450,40.0,2.0,1,0,5.0,0,1,0,0,1,0,0,0,1,1,6.0,1,1,1,1
2024-12-12,2024-12-12,https://www.otodom.pl/pl/oferta/penthouse-107-m2-taras-bielany-4-pok-ID4sDfO,5.0,district,agency,"ul. Jana Kasprowicza, Stare Bielany, Bielany, Warszawa, mazowieckie",52.28481,20.943049,0,1,apartment,1,Bielany,7500,1500,107.0,4.0,0,0,5.0,0,1,1,0,1,0,0,0,0,0,10.0,1,1,1,1
2024-12-12,2024-12-12,https://www.otodom.pl/pl/oferta/piekna-nowoczesna-w-pelni-wyposazona-kawalerka-ID4tTwm,5.0,district,agency,"Białołęka Dworska, Białołęka, Warszawa, mazowieckie",52.32899,21.00768,1,0,apartment,0,Bialoleka,2800,483,28.0,1.0,1,0,5.0,0,1,0,0,0,0,0,0,0,1,2.0,0,0,1,0
2024-12-12,2024-12-12,https://www.otodom.pl/pl/oferta/piekne-2-pok-mieszkanie-ul-obywtelska-ID4joXc,1.0,district,owner,"ul. Obywatelska, Nowe Włochy, Włochy, Warszawa, mazowieckie",52.20578,20.893715,0,1,block_of_flats,1,Wlochy,3500,650,53.0,2.0,0,0,3.0,0,1,0,0,1,0,1,1,1,1,11.0,0,0,1,0
2024-12-12,2024-12-12,https://www.otodom.pl/pl/oferta/przestronne-i-stylowe-3-pokoje-mokotow-cybernetyki-ID4tSVv,2.0,district,agency,"ul. Cybernetyki, Służewiec, Mokotów, Warszawa, mazowieckie",52.176451,20.993539,0,1,apartment,1,Mokotow,5000,950,70.0,3.0,0,0,7.0,0,1,0,0,1,1,0,0,1,1,7.0,1,1,1,0
2024-12-12,2024-12-12,https://www.otodom.pl/pl/oferta/przytulne-mieszkanie-5-min-od-metra-imielin-ID4t7q0,3.0,district,owner,"ul. Jana Wasilkowskiego, Ursynów-Centrum, Ursynów, Warszawa, mazowieckie",52.146113,21.048279,0,1,block_of_flats,0,Ursynow,2600,950,50.0,3.0,0,0,10.0,0,1,1,0,0,1,0,0,0,0,,0,1,1,0
2024-12-12,2024-12-12,https://www.otodom.pl/pl/oferta/sprawdz-eleganckie-2p-na-chomiczowce-ID4tSX6,1.0,district,agency,"ul. Pabla Nerudy, Chomiczówka, Bielany, Warszawa, mazowieckie",52.276844,20.929145,0,1,block_of_flats,0,Bielany,2500,1000,50.0,2.0,0,0,15.0,0,1,0,0,0,1,0,0,0,1,53.0,0,0,0,0
2024-12-12,2024-12-16,https://www.otodom.pl/pl/oferta/stylish-apartment-with-panoramic-views-in-sadyba-ID4tSQU,4.0,district,agency,"Sadyba, Mokotów, Warszawa, mazowieckie",52.186764,21.063757,1,1,apartment,0,Mokotow,3952,0,67.65,3.0,0,0,5.0,0,0,0,0,1,0,0,0,0,1,19.0,0,0,0,0
2024-12-12,2024-12-12,https://www.otodom.pl/pl/oferta/super-2pok-sokratesa-metro-mlociny-garaz-komorka-ID3Ys0M,2.0,district,owner,"ul. Sokratesa, Wawrzyszew, Bielany, Warszawa, mazowieckie",52.285209,20.928617,0,1,apartment,1,Bielany,3100,700,41.0,2.0,1,0,7.0,0,1,0,0,1,0,1,1,1,1,8.0,1,1,1,0
2024-12-12,2024-12-12,https://www.otodom.pl/pl/oferta/swietnie-skomunikowany-apartament-na-mokotowie-ID4tbrv,1.0,district,agency,"ul. Giordana Bruna, Stary Mokotów, Mokotów, Warszawa, mazowieckie",52.209221,21.004317,0,1,apartment,0,Mokotow,4600,0,86.0,3.0,0,0,5.0,0,1,0,0,1,1,0,0,0,1,17.0,0,0,0,0
